{
    "type": "FeatureCollection",
    "features": [
      {"type":"Feature","properties":{"name":"Honiara International Airport","country":"SB","modes":["truck","air"]},"geometry":{"type":"Point","coordinates":[160.054993,-9.428]}},
      {"type":"Feature","properties":{"name":"Port Moresby Jacksons International Airport","country":"PG","modes":["truck","air"]},"geometry":{"type":"Point","coordinates":[147.22000122070312,-9.443380355834961]}},
      {"type":"Feature","properties":{"name":"Keflavik International Airport","country":"IS","modes":["truck","air"]},"geometry":{"type":"Point","coordinates":[-22.6056,63.985001]}},
      {"type":"Feature","properties":{"name":"Edmonton International Airport","country":"CA","modes":["truck","air"]},"geometry":{"type":"Point","coordinates":[-113.580002,53.3097]}},
      {"type":"Feature","properties":{"name":"Halifax / Stanfield International Airport","country":"CA","modes":["truck","air"]},"geometry":{"type":"Point","coordinates":[-63.5085983276,44.8807983398]}},
      {"type":"Feature","properties":{"name":"Ottawa Macdonald-Cartier International Airport","country":"CA","modes":["truck","air"]},"geometry":{"type":"Point","coordinates":[-75.669197,45.322498]}},
      {"type":"Feature","properties":{"name":"Quebec Jean Lesage International Airport","country":"CA","modes":["truck","air"]},"geometry":{"type":"Point","coordinates":[-71.393303,46.7911]}},
      {"type":"Feature","properties":{"name":"Montreal / Pierre Elliott Trudeau International Airport","country":"CA","modes":["truck","air"]},"geometry":{"type":"Point","coordinates":[-73.742294,45.467837]}},
      {"type":"Feature","properties":{"name":"Vancouver International Airport","country":"CA","modes":["truck","air"]},"geometry":{"type":"Point","coordinates":[-123.183998108,49.193901062]}},
      {"type":"Feature","properties":{"name":"Winnipeg / James Armstrong Richardson International Airport","country":"CA","modes":["truck","air"]},"geometry":{"type":"Point","coordinates":[-97.2398986816,49.909999847399995]}},
      {"type":"Feature","properties":{"name":"Calgary International Airport","country":"CA","modes":["truck","air"]},"geometry":{"type":"Point","coordinates":[-114.009933,51.118822]}},
      {"type":"Feature","properties":{"name":"St. John's International Airport","country":"CA","modes":["truck","air"]},"geometry":{"type":"Point","coordinates":[-52.7519,47.618599]}},
      {"type":"Feature","properties":{"name":"Toronto Lester B. Pearson International Airport","country":"CA","modes":["truck","air"]},"geometry":{"type":"Point","coordinates":[-79.6306,43.6772]}},
      {"type":"Feature","properties":{"name":"Houari Boumediene Airport","country":"DZ","modes":["truck","air"]},"geometry":{"type":"Point","coordinates":[3.214531,36.693886]}},
      {"type":"Feature","properties":{"name":"Kotoka International Airport","country":"GH","modes":["truck","air"]},"geometry":{"type":"Point","coordinates":[-0.16678600013256073,5.605189800262451]}},
      {"type":"Feature","properties":{"name":"Nnamdi Azikiwe International Airport","country":"NG","modes":["truck","air"]},"geometry":{"type":"Point","coordinates":[7.26317,9.00679]}},
      {"type":"Feature","properties":{"name":"Murtala Muhammed International Airport","country":"NG","modes":["truck","air"]},"geometry":{"type":"Point","coordinates":[3.321160078048706,6.5773701667785645]}},
      {"type":"Feature","properties":{"name":"Diori Hamani International Airport","country":"NE","modes":["truck","air"]},"geometry":{"type":"Point","coordinates":[2.18361,13.4815]}},
      {"type":"Feature","properties":{"name":"Tunis Carthage International Airport","country":"TN","modes":["truck","air"]},"geometry":{"type":"Point","coordinates":[10.2272,36.851002]}},
      {"type":"Feature","properties":{"name":"Brussels Airport","country":"BE","modes":["truck","air"]},"geometry":{"type":"Point","coordinates":[4.48444,50.901402]}},
      {"type":"Feature","properties":{"name":"Berlin Brandenburg Airport","country":"DE","modes":["truck","air"]},"geometry":{"type":"Point","coordinates":[13.500672,52.362247]}},
      {"type":"Feature","properties":{"name":"Frankfurt Airport","country":"DE","modes":["truck","air"]},"geometry":{"type":"Point","coordinates":[8.561096,50.030241]}},
      {"type":"Feature","properties":{"name":"Hamburg Helmut Schmidt Airport","country":"DE","modes":["truck","air"]},"geometry":{"type":"Point","coordinates":[9.98823,53.630402]}},
      {"type":"Feature","properties":{"name":"Cologne Bonn Airport","country":"DE","modes":["truck","air"]},"geometry":{"type":"Point","coordinates":[7.14274,50.865898]}},
      {"type":"Feature","properties":{"name":"Düsseldorf Airport","country":"DE","modes":["truck","air"]},"geometry":{"type":"Point","coordinates":[6.76678,51.289501]}},
      {"type":"Feature","properties":{"name":"Munich Airport","country":"DE","modes":["truck","air"]},"geometry":{"type":"Point","coordinates":[11.7861,48.353802]}},
      {"type":"Feature","properties":{"name":"Nuremberg Airport","country":"DE","modes":["truck","air"]},"geometry":{"type":"Point","coordinates":[11.078056,49.498699]}},
      {"type":"Feature","properties":{"name":"Leipzig/Halle Airport","country":"DE","modes":["truck","air"]},"geometry":{"type":"Point","coordinates":[12.232705,51.420657]}},
      {"type":"Feature","properties":{"name":"Stuttgart Airport","country":"DE","modes":["truck","air"]},"geometry":{"type":"Point","coordinates":[9.22196,48.689899]}},
      {"type":"Feature","properties":{"name":"Hannover Airport","country":"DE","modes":["truck","air"]},"geometry":{"type":"Point","coordinates":[9.68508,52.461102]}},
      {"type":"Feature","properties":{"name":"Lennart Meri Tallinn Airport","country":"EE","modes":["truck","air"]},"geometry":{"type":"Point","coordinates":[24.83264,59.413246]}},
      {"type":"Feature","properties":{"name":"Helsinki Vantaa Airport","country":"FI","modes":["truck","air"]},"geometry":{"type":"Point","coordinates":[24.963341,60.318363]}},
      {"type":"Feature","properties":{"name":"Belfast International Airport","country":"GB","modes":["truck","air"]},"geometry":{"type":"Point","coordinates":[-6.2158298492399995,54.6575012207]}},
      {"type":"Feature","properties":{"name":"Birmingham Airport","country":"GB","modes":["truck","air"]},"geometry":{"type":"Point","coordinates":[-1.74803,52.453899]}},
      {"type":"Feature","properties":{"name":"Manchester Airport","country":"GB","modes":["truck","air"]},"geometry":{"type":"Point","coordinates":[-2.279521,53.349375]}},
      {"type":"Feature","properties":{"name":"London Luton Airport","country":"GB","modes":["truck","air"]},"geometry":{"type":"Point","coordinates":[-0.368333,51.874699]}},
      {"type":"Feature","properties":{"name":"London Gatwick Airport","country":"GB","modes":["truck","air"]},"geometry":{"type":"Point","coordinates":[-0.192089,51.148771]}},
      {"type":"Feature","properties":{"name":"London Heathrow Airport","country":"GB","modes":["truck","air"]},"geometry":{"type":"Point","coordinates":[-0.461941,51.4706]}},
      {"type":"Feature","properties":{"name":"Glasgow International Airport","country":"GB","modes":["truck","air"]},"geometry":{"type":"Point","coordinates":[-4.43306,55.871899]}},
      {"type":"Feature","properties":{"name":"Edinburgh Airport","country":"GB","modes":["truck","air"]},"geometry":{"type":"Point","coordinates":[-3.372288,55.950145]}},
      {"type":"Feature","properties":{"name":"London Stansted Airport","country":"GB","modes":["truck","air"]},"geometry":{"type":"Point","coordinates":[0.235,51.884998]}},
      {"type":"Feature","properties":{"name":"Amsterdam Airport Schiphol","country":"NL","modes":["truck","air"]},"geometry":{"type":"Point","coordinates":[4.76389,52.308601]}},
      {"type":"Feature","properties":{"name":"Eindhoven Airport","country":"NL","modes":["truck","air"]},"geometry":{"type":"Point","coordinates":[5.37452983856,51.4500999451]}},
      {"type":"Feature","properties":{"name":"Dublin Airport","country":"IE","modes":["truck","air"]},"geometry":{"type":"Point","coordinates":[-6.262121,53.428713]}},
      {"type":"Feature","properties":{"name":"Shannon Airport","country":"IE","modes":["truck","air"]},"geometry":{"type":"Point","coordinates":[-8.92482,52.702]}},
      {"type":"Feature","properties":{"name":"Billund Airport","country":"DK","modes":["truck","air"]},"geometry":{"type":"Point","coordinates":[9.157019,55.740335]}},
      {"type":"Feature","properties":{"name":"Copenhagen Kastrup Airport","country":"DK","modes":["truck","air"]},"geometry":{"type":"Point","coordinates":[12.656000137329,55.617900848389]}},
      {"type":"Feature","properties":{"name":"Luxembourg-Findel International Airport","country":"LU","modes":["truck","air"]},"geometry":{"type":"Point","coordinates":[6.2044444,49.6233333]}},
      {"type":"Feature","properties":{"name":"Bergen Airport, Flesland","country":"NO","modes":["truck","air"]},"geometry":{"type":"Point","coordinates":[5.21814,60.2934]}},
      {"type":"Feature","properties":{"name":"Oslo Airport, Gardermoen","country":"NO","modes":["truck","air"]},"geometry":{"type":"Point","coordinates":[11.1004,60.193901]}},
      {"type":"Feature","properties":{"name":"Tromsø Airport, Langnes","country":"NO","modes":["truck","air"]},"geometry":{"type":"Point","coordinates":[18.9189,69.683296]}},
      {"type":"Feature","properties":{"name":"Trondheim Airport, Værnes","country":"NO","modes":["truck","air"]},"geometry":{"type":"Point","coordinates":[10.924,63.457802]}},
      {"type":"Feature","properties":{"name":"Stavanger Airport, Sola","country":"NO","modes":["truck","air"]},"geometry":{"type":"Point","coordinates":[5.63778,58.876701]}},
      {"type":"Feature","properties":{"name":"Gdańsk Lech Wałęsa Airport","country":"PL","modes":["truck","air"]},"geometry":{"type":"Point","coordinates":[18.4662,54.377602]}},
      {"type":"Feature","properties":{"name":"Kraków John Paul II International Airport","country":"PL","modes":["truck","air"]},"geometry":{"type":"Point","coordinates":[19.7848,50.077702]}},
      {"type":"Feature","properties":{"name":"Warsaw Chopin Airport","country":"PL","modes":["truck","air"]},"geometry":{"type":"Point","coordinates":[20.9671,52.165699]}},
      {"type":"Feature","properties":{"name":"Göteborg Landvetter Airport","country":"SE","modes":["truck","air"]},"geometry":{"type":"Point","coordinates":[12.2798,57.6628]}},
      {"type":"Feature","properties":{"name":"Stockholm-Arlanda Airport","country":"SE","modes":["truck","air"]},"geometry":{"type":"Point","coordinates":[17.928829,59.64849]}},
      {"type":"Feature","properties":{"name":"Riga International Airport","country":"LV","modes":["truck","air"]},"geometry":{"type":"Point","coordinates":[23.9711,56.923599]}},
      {"type":"Feature","properties":{"name":"Vilnius International Airport","country":"LT","modes":["truck","air"]},"geometry":{"type":"Point","coordinates":[25.285801,54.634102]}},
      {"type":"Feature","properties":{"name":"Cape Town International Airport","country":"ZA","modes":["truck","air"]},"geometry":{"type":"Point","coordinates":[18.6016998291,-33.9648017883]}},
      {"type":"Feature","properties":{"name":"King Shaka International Airport","country":"ZA","modes":["truck","air"]},"geometry":{"type":"Point","coordinates":[31.1197222222,-29.6144444444]}},
      {"type":"Feature","properties":{"name":"O.R. Tambo International Airport","country":"ZA","modes":["truck","air"]},"geometry":{"type":"Point","coordinates":[28.246,-26.1392]}},
      {"type":"Feature","properties":{"name":"Sir Seretse Khama International Airport","country":"BW","modes":["truck","air"]},"geometry":{"type":"Point","coordinates":[25.9182,-24.555201]}},
      {"type":"Feature","properties":{"name":"King Mswati III International Airport","country":"SZ","modes":["truck","air"]},"geometry":{"type":"Point","coordinates":[31.716944,-26.358611]}},
      {"type":"Feature","properties":{"name":"Sir Seewoosagur Ramgoolam International Airport","country":"MU","modes":["truck","air"]},"geometry":{"type":"Point","coordinates":[57.683601,-20.430201]}},
      {"type":"Feature","properties":{"name":"Kenneth Kaunda International Airport","country":"ZM","modes":["truck","air"]},"geometry":{"type":"Point","coordinates":[28.452722,-15.330833]}},
      {"type":"Feature","properties":{"name":"Roland Garros Airport","country":"RE","modes":["truck","air"]},"geometry":{"type":"Point","coordinates":[55.518894,-20.890087]}},
      {"type":"Feature","properties":{"name":"Ivato Airport","country":"MG","modes":["truck","air"]},"geometry":{"type":"Point","coordinates":[47.478802,-18.7969]}},
      {"type":"Feature","properties":{"name":"Quatro de Fevereiro International Airport","country":"AO","modes":["truck","air"]},"geometry":{"type":"Point","coordinates":[13.2312,-8.85837]}},
      {"type":"Feature","properties":{"name":"São Tomé International Airport","country":"ST","modes":["truck","air"]},"geometry":{"type":"Point","coordinates":[6.71215,0.378175]}},
      {"type":"Feature","properties":{"name":"Maputo Airport","country":"MZ","modes":["truck","air"]},"geometry":{"type":"Point","coordinates":[32.572601,-25.920799]}},
      {"type":"Feature","properties":{"name":"Seychelles International Airport","country":"SC","modes":["truck","air"]},"geometry":{"type":"Point","coordinates":[55.521801,-4.67434]}},
      {"type":"Feature","properties":{"name":"N'Djamena International Airport","country":"TD","modes":["truck","air"]},"geometry":{"type":"Point","coordinates":[15.034,12.1337]}},
      {"type":"Feature","properties":{"name":"Robert Gabriel Mugabe International Airport","country":"ZW","modes":["truck","air"]},"geometry":{"type":"Point","coordinates":[31.0928,-17.931801]}},
      {"type":"Feature","properties":{"name":"Hosea Kutako International Airport","country":"NA","modes":["truck","air"]},"geometry":{"type":"Point","coordinates":[17.4709,-22.4799]}},
      {"type":"Feature","properties":{"name":"Ndjili International Airport","country":"CD","modes":["truck","air"]},"geometry":{"type":"Point","coordinates":[15.4446,-4.38575]}},
      {"type":"Feature","properties":{"name":"Modibo Keita International Airport","country":"ML","modes":["truck","air"]},"geometry":{"type":"Point","coordinates":[-7.94994,12.5335]}},
      {"type":"Feature","properties":{"name":"Banjul International Airport","country":"GM","modes":["truck","air"]},"geometry":{"type":"Point","coordinates":[-16.652201,13.338]}},
      {"type":"Feature","properties":{"name":"Fuerteventura Airport","country":"ES","modes":["truck","air"]},"geometry":{"type":"Point","coordinates":[-13.8638,28.4527]}},
      {"type":"Feature","properties":{"name":"Gran Canaria Airport","country":"ES","modes":["truck","air"]},"geometry":{"type":"Point","coordinates":[-15.3866,27.9319]}},
      {"type":"Feature","properties":{"name":"César Manrique-Lanzarote Airport","country":"ES","modes":["truck","air"]},"geometry":{"type":"Point","coordinates":[-13.6052,28.945499]}},
      {"type":"Feature","properties":{"name":"Tenerife Sur Airport","country":"ES","modes":["truck","air"]},"geometry":{"type":"Point","coordinates":[-16.5725,28.0445]}},
      {"type":"Feature","properties":{"name":"Lungi International Airport","country":"SL","modes":["truck","air"]},"geometry":{"type":"Point","coordinates":[-13.1955,8.61644]}},
      {"type":"Feature","properties":{"name":"Roberts International Airport","country":"LR","modes":["truck","air"]},"geometry":{"type":"Point","coordinates":[-10.3623,6.23379]}},
      {"type":"Feature","properties":{"name":"Mohammed V International Airport","country":"MA","modes":["truck","air"]},"geometry":{"type":"Point","coordinates":[-7.58997,33.3675]}},
      {"type":"Feature","properties":{"name":"Blaise Diagne International Airport","country":"SN","modes":["truck","air"]},"geometry":{"type":"Point","coordinates":[-17.072829,14.670878]}},
      {"type":"Feature","properties":{"name":"Nouakchott–Oumtounsy International Airport","country":"MR","modes":["truck","air"]},"geometry":{"type":"Point","coordinates":[-15.969722,18.31]}},
      {"type":"Feature","properties":{"name":"Amílcar Cabral International Airport","country":"CV","modes":["truck","air"]},"geometry":{"type":"Point","coordinates":[-22.9494,16.7414]}},
      {"type":"Feature","properties":{"name":"Nelson Mandela International Airport","country":"CV","modes":["truck","air"]},"geometry":{"type":"Point","coordinates":[-23.484728,14.941126]}},
      {"type":"Feature","properties":{"name":"Addis Ababa Bole International Airport","country":"ET","modes":["truck","air"]},"geometry":{"type":"Point","coordinates":[38.799301,8.97789]}},
      {"type":"Feature","properties":{"name":"Djibouti-Ambouli Airport","country":"DJ","modes":["truck","air"]},"geometry":{"type":"Point","coordinates":[43.1595,11.5473]}},
      {"type":"Feature","properties":{"name":"Cairo International Airport","country":"EG","modes":["truck","air"]},"geometry":{"type":"Point","coordinates":[31.396694,30.111534]}},
      {"type":"Feature","properties":{"name":"Hurghada International Airport","country":"EG","modes":["truck","air"]},"geometry":{"type":"Point","coordinates":[33.796692,27.176776]}},
      {"type":"Feature","properties":{"name":"Suhaj Mubarak International Airport","country":"EG","modes":["truck","air"]},"geometry":{"type":"Point","coordinates":[31.743017,26.342515]}},
      {"type":"Feature","properties":{"name":"Sharm El Sheikh International Airport","country":"EG","modes":["truck","air"]},"geometry":{"type":"Point","coordinates":[34.394717,27.977272]}},
      {"type":"Feature","properties":{"name":"Juba International Airport","country":"SS","modes":["truck","air"]},"geometry":{"type":"Point","coordinates":[31.601101,4.87201]}},
      {"type":"Feature","properties":{"name":"Jomo Kenyatta International Airport","country":"KE","modes":["truck","air"]},"geometry":{"type":"Point","coordinates":[36.9277992249,-1.31923997402]}},
      {"type":"Feature","properties":{"name":"Moi International Airport","country":"KE","modes":["truck","air"]},"geometry":{"type":"Point","coordinates":[39.5942,-4.03483]}},
      {"type":"Feature","properties":{"name":"Mitiga International Airport","country":"LY","modes":["truck","air"]},"geometry":{"type":"Point","coordinates":[13.287878,32.89177]}},
      {"type":"Feature","properties":{"name":"Kigali International Airport","country":"RW","modes":["truck","air"]},"geometry":{"type":"Point","coordinates":[30.1395,-1.96863]}},
      {"type":"Feature","properties":{"name":"Khartoum International Airport","country":"SD","modes":["truck","air"]},"geometry":{"type":"Point","coordinates":[32.5532,15.5895]}},
      {"type":"Feature","properties":{"name":"Julius Nyerere International Airport","country":"TZ","modes":["truck","air"]},"geometry":{"type":"Point","coordinates":[39.202599,-6.87811]}},
      {"type":"Feature","properties":{"name":"Abeid Amani Karume International Airport","country":"TZ","modes":["truck","air"]},"geometry":{"type":"Point","coordinates":[39.224899,-6.22202]}},
      {"type":"Feature","properties":{"name":"Entebbe International Airport","country":"UG","modes":["truck","air"]},"geometry":{"type":"Point","coordinates":[32.443501,0.042386]}},
      {"type":"Feature","properties":{"name":"Dhoho International Airport","country":"ID","modes":["truck","air"]},"geometry":{"type":"Point","coordinates":[111.947222,-7.750278]}},
      {"type":"Feature","properties":{"name":"Navi Mumbai International Airport","country":"IN","modes":["truck","air"]},"geometry":{"type":"Point","coordinates":[73.068523,18.988686]}},
      {"type":"Feature","properties":{"name":"Albuquerque International Sunport","country":"US","modes":["truck","air"]},"geometry":{"type":"Point","coordinates":[-106.608925,35.039976]}},
      {"type":"Feature","properties":{"name":"Joint Base Andrews","country":"US","modes":["truck","air"]},"geometry":{"type":"Point","coordinates":[-76.866997,38.810799]}},
      {"type":"Feature","properties":{"name":"Hartsfield Jackson Atlanta International Airport","country":"US","modes":["truck","air"]},"geometry":{"type":"Point","coordinates":[-84.428101,33.6367]}},
      {"type":"Feature","properties":{"name":"Austin Bergstrom International Airport","country":"US","modes":["truck","air"]},"geometry":{"type":"Point","coordinates":[-97.662015,30.197535]}},
      {"type":"Feature","properties":{"name":"Bradley International Airport","country":"US","modes":["truck","air"]},"geometry":{"type":"Point","coordinates":[-72.688066,41.93851]}},
      {"type":"Feature","properties":{"name":"Nashville International Airport","country":"US","modes":["truck","air"]},"geometry":{"type":"Point","coordinates":[-86.6782,36.1245]}},
      {"type":"Feature","properties":{"name":"Logan International Airport","country":"US","modes":["truck","air"]},"geometry":{"type":"Point","coordinates":[-71.0079,42.36197]}},
      {"type":"Feature","properties":{"name":"Buffalo Niagara International Airport","country":"US","modes":["truck","air"]},"geometry":{"type":"Point","coordinates":[-78.732201,42.940498]}},
      {"type":"Feature","properties":{"name":"Baltimore/Washington International Thurgood Marshall Airport","country":"US","modes":["truck","air"]},"geometry":{"type":"Point","coordinates":[-76.668297,39.1754]}},
      {"type":"Feature","properties":{"name":"Cleveland Hopkins International Airport","country":"US","modes":["truck","air"]},"geometry":{"type":"Point","coordinates":[-81.8498,41.411701]}},
      {"type":"Feature","properties":{"name":"Charlotte Douglas International Airport","country":"US","modes":["truck","air"]},"geometry":{"type":"Point","coordinates":[-80.94309997558594,35.2140007019043]}},
      {"type":"Feature","properties":{"name":"John Glenn Columbus International Airport","country":"US","modes":["truck","air"]},"geometry":{"type":"Point","coordinates":[-82.891899,39.998001]}},
      {"type":"Feature","properties":{"name":"Cincinnati Northern Kentucky International Airport","country":"US","modes":["truck","air"]},"geometry":{"type":"Point","coordinates":[-84.667801,39.048801]}},
      {"type":"Feature","properties":{"name":"Ronald Reagan Washington National Airport","country":"US","modes":["truck","air"]},"geometry":{"type":"Point","coordinates":[-77.037697,38.8521]}},
      {"type":"Feature","properties":{"name":"Denver International Airport","country":"US","modes":["truck","air"]},"geometry":{"type":"Point","coordinates":[-104.672996521,39.861698150635]}},
      {"type":"Feature","properties":{"name":"Dallas Fort Worth International Airport","country":"US","modes":["truck","air"]},"geometry":{"type":"Point","coordinates":[-97.038002,32.896801]}},
      {"type":"Feature","properties":{"name":"Detroit Metropolitan Wayne County Airport","country":"US","modes":["truck","air"]},"geometry":{"type":"Point","coordinates":[-83.353786,42.21377]}},
      {"type":"Feature","properties":{"name":"Newark Liberty International Airport","country":"US","modes":["truck","air"]},"geometry":{"type":"Point","coordinates":[-74.168701,40.692501]}},
      {"type":"Feature","properties":{"name":"Fort Lauderdale Hollywood International Airport","country":"US","modes":["truck","air"]},"geometry":{"type":"Point","coordinates":[-80.152702,26.072599]}},
      {"type":"Feature","properties":{"name":"Washington Dulles International Airport","country":"US","modes":["truck","air"]},"geometry":{"type":"Point","coordinates":[-77.455803,38.9445]}},
      {"type":"Feature","properties":{"name":"George Bush Intercontinental Houston Airport","country":"US","modes":["truck","air"]},"geometry":{"type":"Point","coordinates":[-95.34140014648438,29.984399795532227]}},
      {"type":"Feature","properties":{"name":"Indianapolis International Airport","country":"US","modes":["truck","air"]},"geometry":{"type":"Point","coordinates":[-86.294403,39.7173]}},
      {"type":"Feature","properties":{"name":"Jacksonville International Airport","country":"US","modes":["truck","air"]},"geometry":{"type":"Point","coordinates":[-81.687813,30.492469]}},
      {"type":"Feature","properties":{"name":"John F Kennedy International Airport","country":"US","modes":["truck","air"]},"geometry":{"type":"Point","coordinates":[-73.779317,40.639447]}},
      {"type":"Feature","properties":{"name":"Harry Reid International Airport","country":"US","modes":["truck","air"]},"geometry":{"type":"Point","coordinates":[-115.151817,36.083361]}},
      {"type":"Feature","properties":{"name":"Los Angeles International Airport","country":"US","modes":["truck","air"]},"geometry":{"type":"Point","coordinates":[-118.407997,33.942501]}},
      {"type":"Feature","properties":{"name":"LaGuardia Airport","country":"US","modes":["truck","air"]},"geometry":{"type":"Point","coordinates":[-73.872597,40.777199]}},
      {"type":"Feature","properties":{"name":"Kansas City International Airport","country":"US","modes":["truck","air"]},"geometry":{"type":"Point","coordinates":[-94.713898,39.2976]}},
      {"type":"Feature","properties":{"name":"Orlando International Airport","country":"US","modes":["truck","air"]},"geometry":{"type":"Point","coordinates":[-81.30899810791016,28.429399490356445]}},
      {"type":"Feature","properties":{"name":"Chicago Midway International Airport","country":"US","modes":["truck","air"]},"geometry":{"type":"Point","coordinates":[-87.752403,41.785999]}},
      {"type":"Feature","properties":{"name":"Memphis International Airport","country":"US","modes":["truck","air"]},"geometry":{"type":"Point","coordinates":[-89.9767,35.0424]}},
      {"type":"Feature","properties":{"name":"Miami International Airport","country":"US","modes":["truck","air"]},"geometry":{"type":"Point","coordinates":[-80.29060363769531,25.79319953918457]}},
      {"type":"Feature","properties":{"name":"General Mitchell International Airport","country":"US","modes":["truck","air"]},"geometry":{"type":"Point","coordinates":[-87.896599,42.947201]}},
      {"type":"Feature","properties":{"name":"Minneapolis–Saint Paul International Airport / Wold–Chamberlain Field","country":"US","modes":["truck","air"]},"geometry":{"type":"Point","coordinates":[-93.221741,44.880081]}},
      {"type":"Feature","properties":{"name":"Louis Armstrong New Orleans International Airport","country":"US","modes":["truck","air"]},"geometry":{"type":"Point","coordinates":[-90.258003,29.993401]}},
      {"type":"Feature","properties":{"name":"San Francisco Bay Oakland International Airport","country":"US","modes":["truck","air"]},"geometry":{"type":"Point","coordinates":[-122.221184,37.720085]}},
      {"type":"Feature","properties":{"name":"Will Rogers World Airport","country":"US","modes":["truck","air"]},"geometry":{"type":"Point","coordinates":[-97.598248,35.393388]}},
      {"type":"Feature","properties":{"name":"Eppley Airfield","country":"US","modes":["truck","air"]},"geometry":{"type":"Point","coordinates":[-95.894096,41.3032]}},
      {"type":"Feature","properties":{"name":"Ontario International Airport","country":"US","modes":["truck","air"]},"geometry":{"type":"Point","coordinates":[-117.600998,34.056]}},
      {"type":"Feature","properties":{"name":"Chicago O'Hare International Airport","country":"US","modes":["truck","air"]},"geometry":{"type":"Point","coordinates":[-87.9048,41.9786]}},
      {"type":"Feature","properties":{"name":"Norfolk International Airport","country":"US","modes":["truck","air"]},"geometry":{"type":"Point","coordinates":[-76.201,36.895341]}},
      {"type":"Feature","properties":{"name":"Palm Beach International Airport","country":"US","modes":["truck","air"]},"geometry":{"type":"Point","coordinates":[-80.095596,26.683201]}},
      {"type":"Feature","properties":{"name":"Portland International Airport","country":"US","modes":["truck","air"]},"geometry":{"type":"Point","coordinates":[-122.598,45.588699]}},
      {"type":"Feature","properties":{"name":"Philadelphia International Airport","country":"US","modes":["truck","air"]},"geometry":{"type":"Point","coordinates":[-75.241096,39.871899]}},
      {"type":"Feature","properties":{"name":"Phoenix Sky Harbor International Airport","country":"US","modes":["truck","air"]},"geometry":{"type":"Point","coordinates":[-112.005905,33.435302]}},
      {"type":"Feature","properties":{"name":"Pittsburgh International Airport","country":"US","modes":["truck","air"]},"geometry":{"type":"Point","coordinates":[-80.232903,40.491501]}},
      {"type":"Feature","properties":{"name":"Theodore Francis Green State Airport","country":"US","modes":["truck","air"]},"geometry":{"type":"Point","coordinates":[-71.425668,41.725038]}},
      {"type":"Feature","properties":{"name":"Portland International Jetport","country":"US","modes":["truck","air"]},"geometry":{"type":"Point","coordinates":[-70.309303,43.646198]}},
      {"type":"Feature","properties":{"name":"Raleigh Durham International Airport","country":"US","modes":["truck","air"]},"geometry":{"type":"Point","coordinates":[-78.787498,35.877602]}},
      {"type":"Feature","properties":{"name":"Richmond International Airport","country":"US","modes":["truck","air"]},"geometry":{"type":"Point","coordinates":[-77.319702,37.505199]}},
      {"type":"Feature","properties":{"name":"Reno Tahoe International Airport","country":"US","modes":["truck","air"]},"geometry":{"type":"Point","coordinates":[-119.767998,39.4991]}},
      {"type":"Feature","properties":{"name":"Southwest Florida International Airport","country":"US","modes":["truck","air"]},"geometry":{"type":"Point","coordinates":[-81.75520324707031,26.53619956970215]}},
      {"type":"Feature","properties":{"name":"San Diego International Airport","country":"US","modes":["truck","air"]},"geometry":{"type":"Point","coordinates":[-117.190002441,32.7336006165]}},
      {"type":"Feature","properties":{"name":"San Antonio International Airport","country":"US","modes":["truck","air"]},"geometry":{"type":"Point","coordinates":[-98.469803,29.533701]}},
      {"type":"Feature","properties":{"name":"Savannah Hilton Head International Airport","country":"US","modes":["truck","air"]},"geometry":{"type":"Point","coordinates":[-81.202103,32.127602]}},
      {"type":"Feature","properties":{"name":"Louisville Muhammad Ali International Airport","country":"US","modes":["truck","air"]},"geometry":{"type":"Point","coordinates":[-85.736,38.1744]}},
      {"type":"Feature","properties":{"name":"Seattle–Tacoma International Airport","country":"US","modes":["truck","air"]},"geometry":{"type":"Point","coordinates":[-122.310276,47.447943]}},
      {"type":"Feature","properties":{"name":"Orlando Sanford International Airport","country":"US","modes":["truck","air"]},"geometry":{"type":"Point","coordinates":[-81.23750305175781,28.777599334716797]}},
      {"type":"Feature","properties":{"name":"San Francisco International Airport","country":"US","modes":["truck","air"]},"geometry":{"type":"Point","coordinates":[-122.374821,37.619806]}},
      {"type":"Feature","properties":{"name":"Norman Y. Mineta San Jose International Airport","country":"US","modes":["truck","air"]},"geometry":{"type":"Point","coordinates":[-121.929188,37.362452]}},
      {"type":"Feature","properties":{"name":"Salt Lake City International Airport","country":"US","modes":["truck","air"]},"geometry":{"type":"Point","coordinates":[-111.979866,40.78886]}},
      {"type":"Feature","properties":{"name":"Sacramento International Airport","country":"US","modes":["truck","air"]},"geometry":{"type":"Point","coordinates":[-121.591003,38.6954]}},
      {"type":"Feature","properties":{"name":"John Wayne Orange County International Airport","country":"US","modes":["truck","air"]},"geometry":{"type":"Point","coordinates":[-117.867996,33.675701]}},
      {"type":"Feature","properties":{"name":"Sarasota Bradenton International Airport","country":"US","modes":["truck","air"]},"geometry":{"type":"Point","coordinates":[-82.554359,27.394631]}},
      {"type":"Feature","properties":{"name":"St. Louis Lambert International Airport","country":"US","modes":["truck","air"]},"geometry":{"type":"Point","coordinates":[-90.370003,38.748697]}},
      {"type":"Feature","properties":{"name":"Syracuse Hancock International Airport","country":"US","modes":["truck","air"]},"geometry":{"type":"Point","coordinates":[-76.1063003540039,43.11119842529297]}},
      {"type":"Feature","properties":{"name":"Tampa International Airport","country":"US","modes":["truck","air"]},"geometry":{"type":"Point","coordinates":[-82.533203,27.9755]}},
      {"type":"Feature","properties":{"name":"Tulsa International Airport","country":"US","modes":["truck","air"]},"geometry":{"type":"Point","coordinates":[-95.88809967041016,36.19839859008789]}},
      {"type":"Feature","properties":{"name":"Tirana International Airport Mother Teresa","country":"AL","modes":["truck","air"]},"geometry":{"type":"Point","coordinates":[19.7206,41.4147]}},
      {"type":"Feature","properties":{"name":"Burgas Airport","country":"BG","modes":["truck","air"]},"geometry":{"type":"Point","coordinates":[27.515173,42.569917]}},
      {"type":"Feature","properties":{"name":"Sofia Airport","country":"BG","modes":["truck","air"]},"geometry":{"type":"Point","coordinates":[23.417671,42.696357]}},
      {"type":"Feature","properties":{"name":"Varna Airport","country":"BG","modes":["truck","air"]},"geometry":{"type":"Point","coordinates":[27.8251,43.232101]}},
      {"type":"Feature","properties":{"name":"Larnaca International Airport","country":"CY","modes":["truck","air"]},"geometry":{"type":"Point","coordinates":[33.624901,34.875099]}},
      {"type":"Feature","properties":{"name":"Zagreb Franjo Tuđman International Airport","country":"HR","modes":["truck","air"]},"geometry":{"type":"Point","coordinates":[16.0688,45.742901]}},
      {"type":"Feature","properties":{"name":"Alicante-Elche Miguel Hernández Airport","country":"ES","modes":["truck","air"]},"geometry":{"type":"Point","coordinates":[-0.558156,38.2822]}},
      {"type":"Feature","properties":{"name":"Josep Tarradellas Barcelona-El Prat Airport","country":"ES","modes":["truck","air"]},"geometry":{"type":"Point","coordinates":[2.07846,41.2971]}},
      {"type":"Feature","properties":{"name":"Ibiza Airport","country":"ES","modes":["truck","air"]},"geometry":{"type":"Point","coordinates":[1.37312,38.872898]}},
      {"type":"Feature","properties":{"name":"Adolfo Suárez Madrid–Barajas Airport","country":"ES","modes":["truck","air"]},"geometry":{"type":"Point","coordinates":[-3.56264,40.471926]}},
      {"type":"Feature","properties":{"name":"Málaga-Costa del Sol Airport","country":"ES","modes":["truck","air"]},"geometry":{"type":"Point","coordinates":[-4.49911,36.6749]}},
      {"type":"Feature","properties":{"name":"Palma de Mallorca Airport","country":"ES","modes":["truck","air"]},"geometry":{"type":"Point","coordinates":[2.73881,39.551701]}},
      {"type":"Feature","properties":{"name":"Santiago-Rosalía de Castro Airport","country":"ES","modes":["truck","air"]},"geometry":{"type":"Point","coordinates":[-8.41514,42.896301]}},
      {"type":"Feature","properties":{"name":"Bordeaux-Mérignac Airport","country":"FR","modes":["truck","air"]},"geometry":{"type":"Point","coordinates":[-0.715556,44.8283]}},
      {"type":"Feature","properties":{"name":"Toulouse-Blagnac Airport","country":"FR","modes":["truck","air"]},"geometry":{"type":"Point","coordinates":[1.36382,43.629101]}},
      {"type":"Feature","properties":{"name":"Lyon Saint-Exupéry Airport","country":"FR","modes":["truck","air"]},"geometry":{"type":"Point","coordinates":[5.090139,45.725996]}},
      {"type":"Feature","properties":{"name":"Marseille Provence Airport","country":"FR","modes":["truck","air"]},"geometry":{"type":"Point","coordinates":[5.2125,43.438088]}},
      {"type":"Feature","properties":{"name":"Nice-Côte d'Azur Airport","country":"FR","modes":["truck","air"]},"geometry":{"type":"Point","coordinates":[7.21587,43.658401]}},
      {"type":"Feature","properties":{"name":"Charles de Gaulle International Airport","country":"FR","modes":["truck","air"]},"geometry":{"type":"Point","coordinates":[2.55,49.012798]}},
      {"type":"Feature","properties":{"name":"Paris-Orly Airport","country":"FR","modes":["truck","air"]},"geometry":{"type":"Point","coordinates":[2.37944,48.72333]}},
      {"type":"Feature","properties":{"name":"EuroAirport Basel-Mulhouse-Freiburg","country":"FR","modes":["truck","air"]},"geometry":{"type":"Point","coordinates":[7.521117,47.60068]}},
      {"type":"Feature","properties":{"name":"Athens Eleftherios Venizelos International Airport","country":"GR","modes":["truck","air"]},"geometry":{"type":"Point","coordinates":[23.9445,37.936401]}},
      {"type":"Feature","properties":{"name":"Heraklion International Nikos Kazantzakis Airport","country":"GR","modes":["truck","air"]},"geometry":{"type":"Point","coordinates":[25.1803,35.339699]}},
      {"type":"Feature","properties":{"name":"Thessaloniki Macedonia International Airport","country":"GR","modes":["truck","air"]},"geometry":{"type":"Point","coordinates":[22.970009,40.51928]}},
      {"type":"Feature","properties":{"name":"Budapest Liszt Ferenc International Airport","country":"HU","modes":["truck","air"]},"geometry":{"type":"Point","coordinates":[19.262393,47.43018]}},
      {"type":"Feature","properties":{"name":"Bari Karol Wojtyła International Airport","country":"IT","modes":["truck","air"]},"geometry":{"type":"Point","coordinates":[16.760599,41.138901]}},
      {"type":"Feature","properties":{"name":"Brindisi Airport","country":"IT","modes":["truck","air"]},"geometry":{"type":"Point","coordinates":[17.947001,40.6576]}},
      {"type":"Feature","properties":{"name":"Catania-Fontanarossa Airport","country":"IT","modes":["truck","air"]},"geometry":{"type":"Point","coordinates":[15.0664,37.466801]}},
      {"type":"Feature","properties":{"name":"Falcone–Borsellino Airport","country":"IT","modes":["truck","air"]},"geometry":{"type":"Point","coordinates":[13.091,38.175999]}},
      {"type":"Feature","properties":{"name":"Cagliari Elmas Airport","country":"IT","modes":["truck","air"]},"geometry":{"type":"Point","coordinates":[9.05428,39.251499]}},
      {"type":"Feature","properties":{"name":"Milan Malpensa International Airport","country":"IT","modes":["truck","air"]},"geometry":{"type":"Point","coordinates":[8.72811,45.6306]}},
      {"type":"Feature","properties":{"name":"Milan Bergamo Airport / Antonio Locatelli Air Base","country":"IT","modes":["truck","air"]},"geometry":{"type":"Point","coordinates":[9.709223,45.670725]}},
      {"type":"Feature","properties":{"name":"Turin Airport","country":"IT","modes":["truck","air"]},"geometry":{"type":"Point","coordinates":[7.64963,45.200802]}},
      {"type":"Feature","properties":{"name":"Bologna Guglielmo Marconi Airport","country":"IT","modes":["truck","air"]},"geometry":{"type":"Point","coordinates":[11.2887,44.5354]}},
      {"type":"Feature","properties":{"name":"Verona Villafranca Valerio Catullo Airport","country":"IT","modes":["truck","air"]},"geometry":{"type":"Point","coordinates":[10.887303,45.394955]}},
      {"type":"Feature","properties":{"name":"Venice Marco Polo Airport","country":"IT","modes":["truck","air"]},"geometry":{"type":"Point","coordinates":[12.3519,45.505299]}},
      {"type":"Feature","properties":{"name":"Rome–Fiumicino Leonardo da Vinci International Airport","country":"IT","modes":["truck","air"]},"geometry":{"type":"Point","coordinates":[12.251998,41.804532]}},
      {"type":"Feature","properties":{"name":"Naples International Airport","country":"IT","modes":["truck","air"]},"geometry":{"type":"Point","coordinates":[14.2908,40.886002]}},
      {"type":"Feature","properties":{"name":"Pisa International Airport","country":"IT","modes":["truck","air"]},"geometry":{"type":"Point","coordinates":[10.3927,43.683899]}},
      {"type":"Feature","properties":{"name":"Ljubljana Jože Pučnik Airport","country":"SI","modes":["truck","air"]},"geometry":{"type":"Point","coordinates":[14.4576,46.223701]}},
      {"type":"Feature","properties":{"name":"Václav Havel Airport Prague","country":"CZ","modes":["truck","air"]},"geometry":{"type":"Point","coordinates":[14.259911,50.100874]}},
      {"type":"Feature","properties":{"name":"Ben Gurion International Airport","country":"IL","modes":["truck","air"]},"geometry":{"type":"Point","coordinates":[34.8867,32.011398]}},
      {"type":"Feature","properties":{"name":"Ramon International Airport","country":"IL","modes":["truck","air"]},"geometry":{"type":"Point","coordinates":[35.014116,29.727009]}},
      {"type":"Feature","properties":{"name":"Malta International Airport","country":"MT","modes":["truck","air"]},"geometry":{"type":"Point","coordinates":[14.4775,35.857498]}},
      {"type":"Feature","properties":{"name":"Vienna International Airport","country":"AT","modes":["truck","air"]},"geometry":{"type":"Point","coordinates":[16.5697,48.110298]}},
      {"type":"Feature","properties":{"name":"Faro Airport","country":"PT","modes":["truck","air"]},"geometry":{"type":"Point","coordinates":[-7.96590995789,37.0144004822]}},
      {"type":"Feature","properties":{"name":"Madeira International Airport Cristiano Ronaldo","country":"PT","modes":["truck","air"]},"geometry":{"type":"Point","coordinates":[-16.7745,32.697899]}},
      {"type":"Feature","properties":{"name":"João Paulo II Airport","country":"PT","modes":["truck","air"]},"geometry":{"type":"Point","coordinates":[-25.6979007721,37.7411994934]}},
      {"type":"Feature","properties":{"name":"Francisco de Sá Carneiro Airport","country":"PT","modes":["truck","air"]},"geometry":{"type":"Point","coordinates":[-8.68138980865,41.2481002808]}},
      {"type":"Feature","properties":{"name":"Humberto Delgado Airport (Lisbon Portela Airport)","country":"PT","modes":["truck","air"]},"geometry":{"type":"Point","coordinates":[-9.13592,38.7813]}},
      {"type":"Feature","properties":{"name":"Sarajevo International Airport","country":"BA","modes":["truck","air"]},"geometry":{"type":"Point","coordinates":[18.331499,43.8246]}},
      {"type":"Feature","properties":{"name":"Bucharest Henri Coandă International Airport","country":"RO","modes":["truck","air"]},"geometry":{"type":"Point","coordinates":[26.103396,44.572127]}},
      {"type":"Feature","properties":{"name":"Geneva Cointrin International Airport","country":"CH","modes":["truck","air"]},"geometry":{"type":"Point","coordinates":[6.10895,46.238098]}},
      {"type":"Feature","properties":{"name":"Zürich Airport","country":"CH","modes":["truck","air"]},"geometry":{"type":"Point","coordinates":[8.548056,47.458056]}},
      {"type":"Feature","properties":{"name":"Esenboğa International Airport","country":"TR","modes":["truck","air"]},"geometry":{"type":"Point","coordinates":[32.995098,40.128101]}},
      {"type":"Feature","properties":{"name":"Antalya International Airport","country":"TR","modes":["truck","air"]},"geometry":{"type":"Point","coordinates":[30.800501,36.898701]}},
      {"type":"Feature","properties":{"name":"İstanbul Atatürk Airport","country":"TR","modes":["truck","air"]},"geometry":{"type":"Point","coordinates":[28.823714,40.971913]}},
      {"type":"Feature","properties":{"name":"Adnan Menderes International Airport","country":"TR","modes":["truck","air"]},"geometry":{"type":"Point","coordinates":[27.157,38.2924]}},
      {"type":"Feature","properties":{"name":"Dalaman International Airport","country":"TR","modes":["truck","air"]},"geometry":{"type":"Point","coordinates":[28.7924995422,36.7131004333]}},
      {"type":"Feature","properties":{"name":"Milas Bodrum International Airport","country":"TR","modes":["truck","air"]},"geometry":{"type":"Point","coordinates":[27.664301,37.250599]}},
      {"type":"Feature","properties":{"name":"Istanbul Sabiha Gökçen International Airport","country":"TR","modes":["truck","air"]},"geometry":{"type":"Point","coordinates":[29.3092,40.898602]}},
      {"type":"Feature","properties":{"name":"İstanbul Airport","country":"TR","modes":["truck","air"]},"geometry":{"type":"Point","coordinates":[28.741951,41.261297]}},
      {"type":"Feature","properties":{"name":"Skopje International Airport","country":"MK","modes":["truck","air"]},"geometry":{"type":"Point","coordinates":[21.622581,41.958087]}},
      {"type":"Feature","properties":{"name":"Gibraltar Airport","country":"GI","modes":["truck","air"]},"geometry":{"type":"Point","coordinates":[-5.34966,36.151199]}},
      {"type":"Feature","properties":{"name":"Belgrade Nikola Tesla Airport","country":"RS","modes":["truck","air"]},"geometry":{"type":"Point","coordinates":[20.309099,44.818401]}},
      {"type":"Feature","properties":{"name":"Podgorica Airport / Podgorica Golubovci Airbase","country":"ME","modes":["truck","air"]},"geometry":{"type":"Point","coordinates":[19.2519,42.359402]}},
      {"type":"Feature","properties":{"name":"M. R. Štefánik Airport","country":"SK","modes":["truck","air"]},"geometry":{"type":"Point","coordinates":[17.2127,48.1702]}},
      {"type":"Feature","properties":{"name":"Providenciales International Airport","country":"TC","modes":["truck","air"]},"geometry":{"type":"Point","coordinates":[-72.268321,21.773697]}},
      {"type":"Feature","properties":{"name":"Casa De Campo International Airport","country":"DO","modes":["truck","air"]},"geometry":{"type":"Point","coordinates":[-68.911111,18.452222]}},
      {"type":"Feature","properties":{"name":"Punta Cana International Airport","country":"DO","modes":["truck","air"]},"geometry":{"type":"Point","coordinates":[-68.363403,18.5674]}},
      {"type":"Feature","properties":{"name":"Las Américas International Airport","country":"DO","modes":["truck","air"]},"geometry":{"type":"Point","coordinates":[-69.668899536133,18.42970085144]}},
      {"type":"Feature","properties":{"name":"La Aurora Airport","country":"GT","modes":["truck","air"]},"geometry":{"type":"Point","coordinates":[-90.527496,14.5833]}},
      {"type":"Feature","properties":{"name":"Norman Manley International Airport","country":"JM","modes":["truck","air"]},"geometry":{"type":"Point","coordinates":[-76.7874984741211,17.935699462890625]}},
      {"type":"Feature","properties":{"name":"Cozumel International Airport","country":"MX","modes":["truck","air"]},"geometry":{"type":"Point","coordinates":[-86.928538,20.514922]}},
      {"type":"Feature","properties":{"name":"General Guadalupe Victoria International Airport","country":"MX","modes":["truck","air"]},"geometry":{"type":"Point","coordinates":[-104.527938,24.125468]}},
      {"type":"Feature","properties":{"name":"Guadalajara International Airport","country":"MX","modes":["truck","air"]},"geometry":{"type":"Point","coordinates":[-103.310108,20.523342]}},
      {"type":"Feature","properties":{"name":"Manuel Crescencio Rejón International Airport","country":"MX","modes":["truck","air"]},"geometry":{"type":"Point","coordinates":[-89.645462,20.930485]}},
      {"type":"Feature","properties":{"name":"Benito Juárez International Airport","country":"MX","modes":["truck","air"]},"geometry":{"type":"Point","coordinates":[-99.071328,19.435137]}},
      {"type":"Feature","properties":{"name":"Monterrey International Airport","country":"MX","modes":["truck","air"]},"geometry":{"type":"Point","coordinates":[-100.106989,25.778521]}},
      {"type":"Feature","properties":{"name":"General Rafael Buelna International Airport","country":"MX","modes":["truck","air"]},"geometry":{"type":"Point","coordinates":[-106.264572,23.161474]}},
      {"type":"Feature","properties":{"name":"Puerto Vallarta International Airport","country":"MX","modes":["truck","air"]},"geometry":{"type":"Point","coordinates":[-105.254391,20.679913]}},
      {"type":"Feature","properties":{"name":"Los Cabos International Airport","country":"MX","modes":["truck","air"]},"geometry":{"type":"Point","coordinates":[-109.720731,23.151919]}},
      {"type":"Feature","properties":{"name":"General Felipe Ángeles International Airport","country":"MX","modes":["truck","air"]},"geometry":{"type":"Point","coordinates":[-99.0257,19.7357]}},
      {"type":"Feature","properties":{"name":"General Abelardo L. Rodriguez International Airport","country":"MX","modes":["truck","air"]},"geometry":{"type":"Point","coordinates":[-116.969976,32.541043]}},
      {"type":"Feature","properties":{"name":"Cancún International Airport","country":"MX","modes":["truck","air"]},"geometry":{"type":"Point","coordinates":[-86.874304,21.039444]}},
      {"type":"Feature","properties":{"name":"Tocumen International Airport","country":"PA","modes":["truck","air"]},"geometry":{"type":"Point","coordinates":[-79.383499,9.07136]}},
      {"type":"Feature","properties":{"name":"Guanacaste Airport","country":"CR","modes":["truck","air"]},"geometry":{"type":"Point","coordinates":[-85.544403,10.5933]}},
      {"type":"Feature","properties":{"name":"Monseñor Óscar Arnulfo Romero International Airport","country":"SV","modes":["truck","air"]},"geometry":{"type":"Point","coordinates":[-89.055702,13.4409]}},
      {"type":"Feature","properties":{"name":"Toussaint Louverture International Airport","country":"HT","modes":["truck","air"]},"geometry":{"type":"Point","coordinates":[-72.292596,18.580023]}},
      {"type":"Feature","properties":{"name":"José Martí International Airport","country":"CU","modes":["truck","air"]},"geometry":{"type":"Point","coordinates":[-82.40910339355469,22.989200592041016]}},
      {"type":"Feature","properties":{"name":"Juan Gualberto Gomez International Airport","country":"CU","modes":["truck","air"]},"geometry":{"type":"Point","coordinates":[-81.435303,23.034401]}},
      {"type":"Feature","properties":{"name":"Owen Roberts International Airport","country":"KY","modes":["truck","air"]},"geometry":{"type":"Point","coordinates":[-81.357697,19.292801]}},
      {"type":"Feature","properties":{"name":"Lynden Pindling International Airport","country":"BS","modes":["truck","air"]},"geometry":{"type":"Point","coordinates":[-77.466202,25.039]}},
      {"type":"Feature","properties":{"name":"Philip S. W. Goldson International Airport","country":"BZ","modes":["truck","air"]},"geometry":{"type":"Point","coordinates":[-88.303556,17.539951]}},
      {"type":"Feature","properties":{"name":"Faa'a International Airport","country":"PF","modes":["truck","air"]},"geometry":{"type":"Point","coordinates":[-149.606995,-17.553699]}},
      {"type":"Feature","properties":{"name":"Bauerfield International Airport","country":"VU","modes":["truck","air"]},"geometry":{"type":"Point","coordinates":[168.320007,-17.699301]}},
      {"type":"Feature","properties":{"name":"Auckland International Airport","country":"NZ","modes":["truck","air"]},"geometry":{"type":"Point","coordinates":[174.786331,-37.01199]}},
      {"type":"Feature","properties":{"name":"Christchurch International Airport","country":"NZ","modes":["truck","air"]},"geometry":{"type":"Point","coordinates":[172.53199768066406,-43.48939895629883]}},
      {"type":"Feature","properties":{"name":"Wellington International Airport","country":"NZ","modes":["truck","air"]},"geometry":{"type":"Point","coordinates":[174.804992676,-41.3272018433]}},
      {"type":"Feature","properties":{"name":"Bahrain International Airport","country":"BH","modes":["truck","air"]},"geometry":{"type":"Point","coordinates":[50.63764,26.267295]}},
      {"type":"Feature","properties":{"name":"King Fahd International Airport","country":"SA","modes":["truck","air"]},"geometry":{"type":"Point","coordinates":[49.797901,26.471201]}},
      {"type":"Feature","properties":{"name":"King Abdulaziz Air Base","country":"SA","modes":["truck","air"]},"geometry":{"type":"Point","coordinates":[50.152,26.2654]}},
      {"type":"Feature","properties":{"name":"King Abdulaziz International Airport","country":"SA","modes":["truck","air"]},"geometry":{"type":"Point","coordinates":[39.156502,21.6796]}},
      {"type":"Feature","properties":{"name":"Prince Mohammad Bin Abdulaziz Airport","country":"SA","modes":["truck","air"]},"geometry":{"type":"Point","coordinates":[39.705101,24.5534]}},
      {"type":"Feature","properties":{"name":"King Khaled International Airport","country":"SA","modes":["truck","air"]},"geometry":{"type":"Point","coordinates":[46.698799,24.9576]}},
      {"type":"Feature","properties":{"name":"Imam Khomeini International Airport","country":"IR","modes":["truck","air"]},"geometry":{"type":"Point","coordinates":[51.152198791503906,35.416099548339844]}},
      {"type":"Feature","properties":{"name":"Mehrabad International Airport","country":"IR","modes":["truck","air"]},"geometry":{"type":"Point","coordinates":[51.31340026855469,35.68920135498047]}},
      {"type":"Feature","properties":{"name":"Mashhad International Airport","country":"IR","modes":["truck","air"]},"geometry":{"type":"Point","coordinates":[59.64099884033203,36.235198974609375]}},
      {"type":"Feature","properties":{"name":"Shiraz Shahid Dastghaib International Airport","country":"IR","modes":["truck","air"]},"geometry":{"type":"Point","coordinates":[52.589802,29.5392]}},
      {"type":"Feature","properties":{"name":"Queen Alia International Airport","country":"JO","modes":["truck","air"]},"geometry":{"type":"Point","coordinates":[35.9931983948,31.7226009369]}},
      {"type":"Feature","properties":{"name":"Kuwait International Airport","country":"KW","modes":["truck","air"]},"geometry":{"type":"Point","coordinates":[47.968899,29.226601]}},
      {"type":"Feature","properties":{"name":"Beirut Rafic Hariri International Airport","country":"LB","modes":["truck","air"]},"geometry":{"type":"Point","coordinates":[35.488399505615234,33.820899963378906]}},
      {"type":"Feature","properties":{"name":"Duqm International Airport","country":"OM","modes":["truck","air"]},"geometry":{"type":"Point","coordinates":[57.634167,19.501944]}},
      {"type":"Feature","properties":{"name":"Zayed International Airport","country":"AE","modes":["truck","air"]},"geometry":{"type":"Point","coordinates":[54.651718,24.443764]}},
      {"type":"Feature","properties":{"name":"Dubai International Airport","country":"AE","modes":["truck","air"]},"geometry":{"type":"Point","coordinates":[55.3643989563,25.2527999878]}},
      {"type":"Feature","properties":{"name":"Al Maktoum International Airport","country":"AE","modes":["truck","air"]},"geometry":{"type":"Point","coordinates":[55.161389,24.896356]}},
      {"type":"Feature","properties":{"name":"Sharjah International Airport","country":"AE","modes":["truck","air"]},"geometry":{"type":"Point","coordinates":[55.5172,25.3286]}},
      {"type":"Feature","properties":{"name":"Muscat International Airport","country":"OM","modes":["truck","air"]},"geometry":{"type":"Point","coordinates":[58.284401,23.5933]}},
      {"type":"Feature","properties":{"name":"Islamabad International Airport","country":"PK","modes":["truck","air"]},"geometry":{"type":"Point","coordinates":[72.82566,33.549]}},
      {"type":"Feature","properties":{"name":"Jinnah International Airport","country":"PK","modes":["truck","air"]},"geometry":{"type":"Point","coordinates":[67.160797,24.9065]}},
      {"type":"Feature","properties":{"name":"Allama Iqbal International Airport","country":"PK","modes":["truck","air"]},"geometry":{"type":"Point","coordinates":[74.403603,31.521601]}},
      {"type":"Feature","properties":{"name":"Baghdad International Airport / New Al Muthana Air Base","country":"IQ","modes":["truck","air"]},"geometry":{"type":"Point","coordinates":[44.2346,33.262501]}},
      {"type":"Feature","properties":{"name":"Damascus International Airport","country":"SY","modes":["truck","air"]},"geometry":{"type":"Point","coordinates":[36.51559829711914,33.4114990234375]}},
      {"type":"Feature","properties":{"name":"Hamad International Airport","country":"QA","modes":["truck","air"]},"geometry":{"type":"Point","coordinates":[51.608056,25.273056]}},
      {"type":"Feature","properties":{"name":"Ted Stevens Anchorage International Airport","country":"US","modes":["truck","air"]},"geometry":{"type":"Point","coordinates":[-149.992561,61.179004]}},
      {"type":"Feature","properties":{"name":"Antonio B. Won Pat International Airport","country":"GU","modes":["truck","air"]},"geometry":{"type":"Point","coordinates":[144.796005,13.4834]}},
      {"type":"Feature","properties":{"name":"Daniel K Inouye International Airport","country":"US","modes":["truck","air"]},"geometry":{"type":"Point","coordinates":[-157.924228,21.32062]}},
      {"type":"Feature","properties":{"name":"Kahului International Airport","country":"US","modes":["truck","air"]},"geometry":{"type":"Point","coordinates":[-156.431837,20.896263]}},
      {"type":"Feature","properties":{"name":"Kaohsiung International Airport","country":"TW","modes":["truck","air"]},"geometry":{"type":"Point","coordinates":[120.349998,22.577101]}},
      {"type":"Feature","properties":{"name":"Taiwan Taoyuan International Airport","country":"TW","modes":["truck","air"]},"geometry":{"type":"Point","coordinates":[121.233002,25.0777]}},
      {"type":"Feature","properties":{"name":"Narita International Airport","country":"JP","modes":["truck","air"]},"geometry":{"type":"Point","coordinates":[140.386002,35.764702]}},
      {"type":"Feature","properties":{"name":"Kansai International Airport","country":"JP","modes":["truck","air"]},"geometry":{"type":"Point","coordinates":[135.244003,34.427299]}},
      {"type":"Feature","properties":{"name":"New Chitose Airport","country":"JP","modes":["truck","air"]},"geometry":{"type":"Point","coordinates":[141.692001,42.7752]}},
      {"type":"Feature","properties":{"name":"Fukuoka Airport","country":"JP","modes":["truck","air"]},"geometry":{"type":"Point","coordinates":[130.4510040283203,33.585899353027344]}},
      {"type":"Feature","properties":{"name":"Kagoshima Airport","country":"JP","modes":["truck","air"]},"geometry":{"type":"Point","coordinates":[130.718994,31.8034]}},
      {"type":"Feature","properties":{"name":"Chubu Centrair International Airport","country":"JP","modes":["truck","air"]},"geometry":{"type":"Point","coordinates":[136.804993,34.858398]}},
      {"type":"Feature","properties":{"name":"Osaka International Airport","country":"JP","modes":["truck","air"]},"geometry":{"type":"Point","coordinates":[135.438004,34.7855]}},
      {"type":"Feature","properties":{"name":"Sendai Airport","country":"JP","modes":["truck","air"]},"geometry":{"type":"Point","coordinates":[140.917007,38.139702]}},
      {"type":"Feature","properties":{"name":"Tokyo Haneda International Airport","country":"JP","modes":["truck","air"]},"geometry":{"type":"Point","coordinates":[139.779999,35.552299]}},
      {"type":"Feature","properties":{"name":"Yokota Air Base","country":"JP","modes":["truck","air"]},"geometry":{"type":"Point","coordinates":[139.348007,35.748501]}},
      {"type":"Feature","properties":{"name":"Muan International Airport","country":"KR","modes":["truck","air"]},"geometry":{"type":"Point","coordinates":[126.382814,34.991406]}},
      {"type":"Feature","properties":{"name":"Jeju International Airport","country":"KR","modes":["truck","air"]},"geometry":{"type":"Point","coordinates":[126.492548,33.512058]}},
      {"type":"Feature","properties":{"name":"Gimhae International Airport","country":"KR","modes":["truck","air"]},"geometry":{"type":"Point","coordinates":[128.938004,35.179501]}},
      {"type":"Feature","properties":{"name":"Incheon International Airport","country":"KR","modes":["truck","air"]},"geometry":{"type":"Point","coordinates":[126.450996,37.469101]}},
      {"type":"Feature","properties":{"name":"Gimpo International Airport","country":"KR","modes":["truck","air"]},"geometry":{"type":"Point","coordinates":[126.791,37.5583]}},
      {"type":"Feature","properties":{"name":"Naha Airport / JASDF Naha Air Base","country":"JP","modes":["truck","air"]},"geometry":{"type":"Point","coordinates":[127.646004,26.195801]}},
      {"type":"Feature","properties":{"name":"Kadena Air Base","country":"JP","modes":["truck","air"]},"geometry":{"type":"Point","coordinates":[127.769444,26.351667]}},
      {"type":"Feature","properties":{"name":"Ninoy Aquino International Airport","country":"PH","modes":["truck","air"]},"geometry":{"type":"Point","coordinates":[121.019997,14.5086]}},
      {"type":"Feature","properties":{"name":"Francisco Bangoy International Airport","country":"PH","modes":["truck","air"]},"geometry":{"type":"Point","coordinates":[125.646004,7.12552]}},
      {"type":"Feature","properties":{"name":"Mactan Cebu International Airport","country":"PH","modes":["truck","air"]},"geometry":{"type":"Point","coordinates":[123.97974,10.309261]}},
      {"type":"Feature","properties":{"name":"Lipetsk Air Base","country":"RU","modes":["truck","air"]},"geometry":{"type":"Point","coordinates":[39.445,52.634998]}},
      {"type":"Feature","properties":{"name":"Jorge Newbery Airpark","country":"AR","modes":["truck","air"]},"geometry":{"type":"Point","coordinates":[-58.4156,-34.5592]}},
      {"type":"Feature","properties":{"name":"Minister Pistarini International Airport","country":"AR","modes":["truck","air"]},"geometry":{"type":"Point","coordinates":[-58.5358,-34.8222]}},
      {"type":"Feature","properties":{"name":"Val de Cans/Júlio Cezar Ribeiro International Airport","country":"BR","modes":["truck","air"]},"geometry":{"type":"Point","coordinates":[-48.476207,-1.379279]}},
      {"type":"Feature","properties":{"name":"Presidente Juscelino Kubitschek International Airport","country":"BR","modes":["truck","air"]},"geometry":{"type":"Point","coordinates":[-47.920834,-15.869167]}},
      {"type":"Feature","properties":{"name":"Tancredo Neves International Airport","country":"BR","modes":["truck","air"]},"geometry":{"type":"Point","coordinates":[-43.966928,-19.63571]}},
      {"type":"Feature","properties":{"name":"Eduardo Gomes International Airport","country":"BR","modes":["truck","air"]},"geometry":{"type":"Point","coordinates":[-60.049702,-3.03861]}},
      {"type":"Feature","properties":{"name":"Hercílio Luz International Airport","country":"BR","modes":["truck","air"]},"geometry":{"type":"Point","coordinates":[-48.552502,-27.670279]}},
      {"type":"Feature","properties":{"name":"Pinto Martins International Airport","country":"BR","modes":["truck","air"]},"geometry":{"type":"Point","coordinates":[-38.532222,-3.775833]}},
      {"type":"Feature","properties":{"name":"Rio Galeão – Tom Jobim International Airport","country":"BR","modes":["truck","air"]},"geometry":{"type":"Point","coordinates":[-43.250557,-22.809999]}},
      {"type":"Feature","properties":{"name":"Guarulhos - Governador André Franco Montoro International Airport","country":"BR","modes":["truck","air"]},"geometry":{"type":"Point","coordinates":[-46.467778,-23.431944]}},
      {"type":"Feature","properties":{"name":"Porto Seguro Airport","country":"BR","modes":["truck","air"]},"geometry":{"type":"Point","coordinates":[-39.080584,-16.438426]}},
      {"type":"Feature","properties":{"name":"Deputado Luiz Eduardo Magalhães International Airport","country":"BR","modes":["truck","air"]},"geometry":{"type":"Point","coordinates":[-38.322498,-12.908611]}},
      {"type":"Feature","properties":{"name":"Eurico de Aguiar Salles Airport","country":"BR","modes":["truck","air"]},"geometry":{"type":"Point","coordinates":[-40.285,-20.258]}},
      {"type":"Feature","properties":{"name":"Comodoro Arturo Merino Benítez International Airport","country":"CL","modes":["truck","air"]},"geometry":{"type":"Point","coordinates":[-70.78579711914062,-33.393001556396484]}},
      {"type":"Feature","properties":{"name":"José Joaquín de Olmedo International Airport","country":"EC","modes":["truck","air"]},"geometry":{"type":"Point","coordinates":[-79.883598,-2.15742]}},
      {"type":"Feature","properties":{"name":"Mariscal Sucre International Airport","country":"EC","modes":["truck","air"]},"geometry":{"type":"Point","coordinates":[-78.354306,-0.125399]}},
      {"type":"Feature","properties":{"name":"Silvio Pettirossi International Airport","country":"PY","modes":["truck","air"]},"geometry":{"type":"Point","coordinates":[-57.519227,-25.240156]}},
      {"type":"Feature","properties":{"name":"Lieutenant Amin Ayub González International Airport","country":"PY","modes":["truck","air"]},"geometry":{"type":"Point","coordinates":[-55.837584,-27.227537]}},
      {"type":"Feature","properties":{"name":"Guaraní International Airport","country":"PY","modes":["truck","air"]},"geometry":{"type":"Point","coordinates":[-54.839544,-25.457186]}},
      {"type":"Feature","properties":{"name":"Doctor Luis Maria Argaña International Airport","country":"PY","modes":["truck","air"]},"geometry":{"type":"Point","coordinates":[-60.6217,-22.046499]}},
      {"type":"Feature","properties":{"name":"El Dorado International Airport","country":"CO","modes":["truck","air"]},"geometry":{"type":"Point","coordinates":[-74.1469,4.70159]}},
      {"type":"Feature","properties":{"name":"Viru Viru International Airport","country":"BO","modes":["truck","air"]},"geometry":{"type":"Point","coordinates":[-63.135399,-17.6448]}},
      {"type":"Feature","properties":{"name":"Johan Adolf Pengel International Airport","country":"SR","modes":["truck","air"]},"geometry":{"type":"Point","coordinates":[-55.187801,5.45283]}},
      {"type":"Feature","properties":{"name":"Cayenne – Félix Eboué Airport","country":"GF","modes":["truck","air"]},"geometry":{"type":"Point","coordinates":[-52.361326,4.819964]}},
      {"type":"Feature","properties":{"name":"Jorge Chávez International Airport","country":"PE","modes":["truck","air"]},"geometry":{"type":"Point","coordinates":[-77.114305,-12.0219]}},
      {"type":"Feature","properties":{"name":"Alejandro Velasco Astete International Airport","country":"PE","modes":["truck","air"]},"geometry":{"type":"Point","coordinates":[-71.9387969971,-13.535699844400002]}},
      {"type":"Feature","properties":{"name":"Carrasco General Cesáreo L. Berisso International Airport","country":"UY","modes":["truck","air"]},"geometry":{"type":"Point","coordinates":[-56.026497,-34.835647]}},
      {"type":"Feature","properties":{"name":"General José Antonio Anzoategui International Airport","country":"VE","modes":["truck","air"]},"geometry":{"type":"Point","coordinates":[-64.692222,10.111111]}},
      {"type":"Feature","properties":{"name":"Simón Bolívar International Airport","country":"VE","modes":["truck","air"]},"geometry":{"type":"Point","coordinates":[-66.991222,10.601194]}},
      {"type":"Feature","properties":{"name":"Martinique Aimé Césaire International Airport","country":"MQ","modes":["truck","air"]},"geometry":{"type":"Point","coordinates":[-61.003201,14.591]}},
      {"type":"Feature","properties":{"name":"Pointe-à-Pitre Le Raizet International  Airport","country":"GP","modes":["truck","air"]},"geometry":{"type":"Point","coordinates":[-61.531799,16.265301]}},
      {"type":"Feature","properties":{"name":"Luis Munoz Marin International Airport","country":"PR","modes":["truck","air"]},"geometry":{"type":"Point","coordinates":[-66.001801,18.4394]}},
      {"type":"Feature","properties":{"name":"Hewanorra International Airport","country":"LC","modes":["truck","air"]},"geometry":{"type":"Point","coordinates":[-60.952599,13.7332]}},
      {"type":"Feature","properties":{"name":"Queen Beatrix International Airport","country":"AW","modes":["truck","air"]},"geometry":{"type":"Point","coordinates":[-70.015198,12.5014]}},
      {"type":"Feature","properties":{"name":"Flamingo International Airport","country":"BQ","modes":["truck","air"]},"geometry":{"type":"Point","coordinates":[-68.268501,12.131]}},
      {"type":"Feature","properties":{"name":"Hato International Airport","country":"CW","modes":["truck","air"]},"geometry":{"type":"Point","coordinates":[-68.959801,12.1889]}},
      {"type":"Feature","properties":{"name":"Princess Juliana International Airport","country":"SX","modes":["truck","air"]},"geometry":{"type":"Point","coordinates":[-63.108898,18.041]}},
      {"type":"Feature","properties":{"name":"Çukurova International Airport","country":"TR","modes":["truck","air"]},"geometry":{"type":"Point","coordinates":[35.070522,36.890908]}},
      {"type":"Feature","properties":{"name":"Almaty International Airport","country":"KZ","modes":["truck","air"]},"geometry":{"type":"Point","coordinates":[77.042828,43.354267]}},
      {"type":"Feature","properties":{"name":"Nursultan Nazarbayev International Airport","country":"KZ","modes":["truck","air"]},"geometry":{"type":"Point","coordinates":[71.467094,51.027035]}},
      {"type":"Feature","properties":{"name":"Manas International Airport","country":"KG","modes":["truck","air"]},"geometry":{"type":"Point","coordinates":[74.4776000977,43.0612983704]}},
      {"type":"Feature","properties":{"name":"Heydar Aliyev International Airport","country":"AZ","modes":["truck","air"]},"geometry":{"type":"Point","coordinates":[50.04669952392578,40.467498779296875]}},
      {"type":"Feature","properties":{"name":"Zvartnots International Airport","country":"AM","modes":["truck","air"]},"geometry":{"type":"Point","coordinates":[44.3959007263,40.1473007202]}},
      {"type":"Feature","properties":{"name":"Tbilisi International Airport","country":"GE","modes":["truck","air"]},"geometry":{"type":"Point","coordinates":[44.9547,41.669201]}},
      {"type":"Feature","properties":{"name":"Vladivostok International Airport","country":"RU","modes":["truck","air"]},"geometry":{"type":"Point","coordinates":[132.148155,43.396256]}},
      {"type":"Feature","properties":{"name":"Boryspil International Airport","country":"UA","modes":["truck","air"]},"geometry":{"type":"Point","coordinates":[30.894699,50.345001]}},
      {"type":"Feature","properties":{"name":"Lviv International Airport","country":"UA","modes":["truck","air"]},"geometry":{"type":"Point","coordinates":[23.9561,49.8125]}},
      {"type":"Feature","properties":{"name":"Pulkovo Airport","country":"RU","modes":["truck","air"]},"geometry":{"type":"Point","coordinates":[30.262501,59.800301]}},
      {"type":"Feature","properties":{"name":"Minsk National Airport","country":"BY","modes":["truck","air"]},"geometry":{"type":"Point","coordinates":[28.039964,53.888071]}},
      {"type":"Feature","properties":{"name":"Krasnoyarsk International Airport","country":"RU","modes":["truck","air"]},"geometry":{"type":"Point","coordinates":[92.492437,56.173077]}},
      {"type":"Feature","properties":{"name":"Novosibirsk Tolmachevo Airport","country":"RU","modes":["truck","air"]},"geometry":{"type":"Point","coordinates":[82.618675,55.019756]}},
      {"type":"Feature","properties":{"name":"Platov International Airport","country":"RU","modes":["truck","air"]},"geometry":{"type":"Point","coordinates":[39.924722,47.493888]}},
      {"type":"Feature","properties":{"name":"Sochi International Airport","country":"RU","modes":["truck","air"]},"geometry":{"type":"Point","coordinates":[39.9566,43.449902]}},
      {"type":"Feature","properties":{"name":"Koltsovo Airport","country":"RU","modes":["truck","air"]},"geometry":{"type":"Point","coordinates":[60.802700042725,56.743099212646]}},
      {"type":"Feature","properties":{"name":"Ashgabat International Airport","country":"TM","modes":["truck","air"]},"geometry":{"type":"Point","coordinates":[58.361,37.986801]}},
      {"type":"Feature","properties":{"name":"Tashkent International Airport","country":"UZ","modes":["truck","air"]},"geometry":{"type":"Point","coordinates":[69.2811965942,41.257900238]}},
      {"type":"Feature","properties":{"name":"Zhukovsky International Airport","country":"RU","modes":["truck","air"]},"geometry":{"type":"Point","coordinates":[38.150002,55.553299]}},
      {"type":"Feature","properties":{"name":"Domodedovo International Airport","country":"RU","modes":["truck","air"]},"geometry":{"type":"Point","coordinates":[37.9063,55.408798]}},
      {"type":"Feature","properties":{"name":"Sheremetyevo International Airport","country":"RU","modes":["truck","air"]},"geometry":{"type":"Point","coordinates":[37.4146,55.972599]}},
      {"type":"Feature","properties":{"name":"Vnukovo International Airport","country":"RU","modes":["truck","air"]},"geometry":{"type":"Point","coordinates":[37.261501,55.591499]}},
      {"type":"Feature","properties":{"name":"Kazan International Airport","country":"RU","modes":["truck","air"]},"geometry":{"type":"Point","coordinates":[49.278701782227,55.606201171875]}},
      {"type":"Feature","properties":{"name":"Gagarin International Airport","country":"RU","modes":["truck","air"]},"geometry":{"type":"Point","coordinates":[46.171111,51.712778]}},
      {"type":"Feature","properties":{"name":"Ufa International Airport","country":"RU","modes":["truck","air"]},"geometry":{"type":"Point","coordinates":[55.874401092529,54.557498931885]}},
      {"type":"Feature","properties":{"name":"Kurumoch International Airport","country":"RU","modes":["truck","air"]},"geometry":{"type":"Point","coordinates":[50.164299,53.504902]}},
      {"type":"Feature","properties":{"name":"Chhatrapati Shivaji International Airport","country":"IN","modes":["truck","air"]},"geometry":{"type":"Point","coordinates":[72.8678970337,19.0886993408]}},
      {"type":"Feature","properties":{"name":"Rajkot International Airport","country":"IN","modes":["truck","air"]},"geometry":{"type":"Point","coordinates":[71.039391,22.378824]}},
      {"type":"Feature","properties":{"name":"Bandaranaike International Colombo Airport","country":"LK","modes":["truck","air"]},"geometry":{"type":"Point","coordinates":[79.88410186767578,7.180759906768799]}},
      {"type":"Feature","properties":{"name":"Mattala Rajapaksa International Airport","country":"LK","modes":["truck","air"]},"geometry":{"type":"Point","coordinates":[81.124128,6.284467]}},
      {"type":"Feature","properties":{"name":"Phnom Penh International Airport","country":"KH","modes":["truck","air"]},"geometry":{"type":"Point","coordinates":[104.844002,11.5466]}},
      {"type":"Feature","properties":{"name":"Siem Reap-Angkor International Airport","country":"KH","modes":["truck","air"]},"geometry":{"type":"Point","coordinates":[104.223056,13.369167]}},
      {"type":"Feature","properties":{"name":"Netaji Subhash Chandra Bose International Airport","country":"IN","modes":["truck","air"]},"geometry":{"type":"Point","coordinates":[88.446701,22.654699]}},
      {"type":"Feature","properties":{"name":"Hazrat Shahjalal International Airport","country":"BD","modes":["truck","air"]},"geometry":{"type":"Point","coordinates":[90.397783,23.843347]}},
      {"type":"Feature","properties":{"name":"Hong Kong International Airport","country":"HK","modes":["truck","air"]},"geometry":{"type":"Point","coordinates":[113.915001,22.308901]}},
      {"type":"Feature","properties":{"name":"Indira Gandhi International Airport","country":"IN","modes":["truck","air"]},"geometry":{"type":"Point","coordinates":[77.09519,28.55563]}},
      {"type":"Feature","properties":{"name":"Macau International Airport","country":"MO","modes":["truck","air"]},"geometry":{"type":"Point","coordinates":[113.592003,22.149599]}},
      {"type":"Feature","properties":{"name":"Tribhuvan International Airport","country":"NP","modes":["truck","air"]},"geometry":{"type":"Point","coordinates":[85.3591,27.6966]}},
      {"type":"Feature","properties":{"name":"Kempegowda International Airport","country":"IN","modes":["truck","air"]},"geometry":{"type":"Point","coordinates":[77.706299,13.1979]}},
      {"type":"Feature","properties":{"name":"Cochin International Airport","country":"IN","modes":["truck","air"]},"geometry":{"type":"Point","coordinates":[76.401901,10.152]}},
      {"type":"Feature","properties":{"name":"Manohar International Airport","country":"IN","modes":["truck","air"]},"geometry":{"type":"Point","coordinates":[73.860625,15.744257]}},
      {"type":"Feature","properties":{"name":"Dabolim Airport","country":"IN","modes":["truck","air"]},"geometry":{"type":"Point","coordinates":[73.831398,15.3808]}},
      {"type":"Feature","properties":{"name":"Rajiv Gandhi International Airport","country":"IN","modes":["truck","air"]},"geometry":{"type":"Point","coordinates":[78.429855,17.231318]}},
      {"type":"Feature","properties":{"name":"Chennai International Airport","country":"IN","modes":["truck","air"]},"geometry":{"type":"Point","coordinates":[80.169296,12.990005]}},
      {"type":"Feature","properties":{"name":"Thiruvananthapuram International Airport","country":"IN","modes":["truck","air"]},"geometry":{"type":"Point","coordinates":[76.920097,8.48212]}},
      {"type":"Feature","properties":{"name":"Malé International Airport","country":"MV","modes":["truck","air"]},"geometry":{"type":"Point","coordinates":[73.52909851074219,4.191830158233643]}},
      {"type":"Feature","properties":{"name":"Don Mueang International Airport","country":"TH","modes":["truck","air"]},"geometry":{"type":"Point","coordinates":[100.607002258,13.9125995636]}},
      {"type":"Feature","properties":{"name":"Suvarnabhumi Airport","country":"TH","modes":["truck","air"]},"geometry":{"type":"Point","coordinates":[100.74700164794922,13.681099891662598]}},
      {"type":"Feature","properties":{"name":"Chiang Mai International Airport","country":"TH","modes":["truck","air"]},"geometry":{"type":"Point","coordinates":[98.962600708,18.766799926799997]}},
      {"type":"Feature","properties":{"name":"Phuket International Airport","country":"TH","modes":["truck","air"]},"geometry":{"type":"Point","coordinates":[98.316902,8.1132]}},
      {"type":"Feature","properties":{"name":"Noi Bai International Airport","country":"VN","modes":["truck","air"]},"geometry":{"type":"Point","coordinates":[105.806999,21.221201]}},
      {"type":"Feature","properties":{"name":"Tan Son Nhat International Airport","country":"VN","modes":["truck","air"]},"geometry":{"type":"Point","coordinates":[106.652,10.8188]}},
      {"type":"Feature","properties":{"name":"Mandalay International Airport","country":"MM","modes":["truck","air"]},"geometry":{"type":"Point","coordinates":[95.97789764404297,21.702199935913086]}},
      {"type":"Feature","properties":{"name":"Yangon International Airport","country":"MM","modes":["truck","air"]},"geometry":{"type":"Point","coordinates":[96.1332015991,16.907300949099998]}},
      {"type":"Feature","properties":{"name":"Hasanuddin International Airport","country":"ID","modes":["truck","air"]},"geometry":{"type":"Point","coordinates":[119.554001,-5.06163]}},
      {"type":"Feature","properties":{"name":"I Gusti Ngurah Rai International Airport","country":"ID","modes":["truck","air"]},"geometry":{"type":"Point","coordinates":[115.167,-8.74817]}},
      {"type":"Feature","properties":{"name":"Dortheys Hiyo Eluay International Airport","country":"ID","modes":["truck","air"]},"geometry":{"type":"Point","coordinates":[140.519857,-2.579627]}},
      {"type":"Feature","properties":{"name":"Sultan Aji Muhammad Sulaiman Sepinggan International Airport","country":"ID","modes":["truck","air"]},"geometry":{"type":"Point","coordinates":[116.89452,-1.268342]}},
      {"type":"Feature","properties":{"name":"Juanda International Airport","country":"ID","modes":["truck","air"]},"geometry":{"type":"Point","coordinates":[112.787003,-7.37983]}},
      {"type":"Feature","properties":{"name":"Brunei International Airport","country":"BN","modes":["truck","air"]},"geometry":{"type":"Point","coordinates":[114.928001,4.9442]}},
      {"type":"Feature","properties":{"name":"Soekarno-Hatta International Airport","country":"ID","modes":["truck","air"]},"geometry":{"type":"Point","coordinates":[106.65599823,-6.1255698204]}},
      {"type":"Feature","properties":{"name":"Kualanamu International Airport","country":"ID","modes":["truck","air"]},"geometry":{"type":"Point","coordinates":[98.870566,3.637847]}},
      {"type":"Feature","properties":{"name":"Kuala Lumpur International Airport","country":"MY","modes":["truck","air"]},"geometry":{"type":"Point","coordinates":[101.709999,2.74558]}},
      {"type":"Feature","properties":{"name":"Singapore Changi Airport","country":"SG","modes":["truck","air"]},"geometry":{"type":"Point","coordinates":[103.994003,1.35019]}},
      {"type":"Feature","properties":{"name":"Brisbane International Airport","country":"AU","modes":["truck","air"]},"geometry":{"type":"Point","coordinates":[153.11700439453125,-27.384199142456055]}},
      {"type":"Feature","properties":{"name":"Melbourne International Airport","country":"AU","modes":["truck","air"]},"geometry":{"type":"Point","coordinates":[144.843002,-37.673302]}},
      {"type":"Feature","properties":{"name":"Yantai Penglai International Airport","country":"CN","modes":["truck","air"]},"geometry":{"type":"Point","coordinates":[120.978124,37.659724]}},
      {"type":"Feature","properties":{"name":"Adelaide International Airport","country":"AU","modes":["truck","air"]},"geometry":{"type":"Point","coordinates":[138.533393,-34.947512]}},
      {"type":"Feature","properties":{"name":"Darwin International Airport / RAAF Darwin","country":"AU","modes":["truck","air"]},"geometry":{"type":"Point","coordinates":[130.88185,-12.41497]}},
      {"type":"Feature","properties":{"name":"Perth International Airport","country":"AU","modes":["truck","air"]},"geometry":{"type":"Point","coordinates":[115.96700286865234,-31.94029998779297]}},
      {"type":"Feature","properties":{"name":"Sydney Kingsford Smith International Airport","country":"AU","modes":["truck","air"]},"geometry":{"type":"Point","coordinates":[151.177002,-33.946098]}},
      {"type":"Feature","properties":{"name":"Beijing Capital International Airport","country":"CN","modes":["truck","air"]},"geometry":{"type":"Point","coordinates":[116.58499908447266,40.080101013183594]}},
      {"type":"Feature","properties":{"name":"Beijing Daxing International Airport","country":"CN","modes":["truck","air"]},"geometry":{"type":"Point","coordinates":[116.41092,39.509945]}},
      {"type":"Feature","properties":{"name":"Hohhot Baita International Airport","country":"CN","modes":["truck","air"]},"geometry":{"type":"Point","coordinates":[111.824598,40.849658]}},
      {"type":"Feature","properties":{"name":"Tianjin Binhai International Airport","country":"CN","modes":["truck","air"]},"geometry":{"type":"Point","coordinates":[117.346000671,39.124401092499994]}},
      {"type":"Feature","properties":{"name":"Taiyuan Wusu Airport","country":"CN","modes":["truck","air"]},"geometry":{"type":"Point","coordinates":[112.627998,37.746899]}},
      {"type":"Feature","properties":{"name":"Guangzhou Baiyun International Airport","country":"CN","modes":["truck","air"]},"geometry":{"type":"Point","coordinates":[113.299004,23.392401]}},
      {"type":"Feature","properties":{"name":"Changsha Huanghua International Airport","country":"CN","modes":["truck","air"]},"geometry":{"type":"Point","coordinates":[113.220001,28.189199]}},
      {"type":"Feature","properties":{"name":"Guilin Liangjiang International Airport","country":"CN","modes":["truck","air"]},"geometry":{"type":"Point","coordinates":[110.039553,25.219828]}},
      {"type":"Feature","properties":{"name":"Nanning Wuxu Airport","country":"CN","modes":["truck","air"]},"geometry":{"type":"Point","coordinates":[108.175335,22.608544]}},
      {"type":"Feature","properties":{"name":"Shenzhen Bao'an International Airport","country":"CN","modes":["truck","air"]},"geometry":{"type":"Point","coordinates":[113.810997,22.639299]}},
      {"type":"Feature","properties":{"name":"Zhengzhou Xinzheng International Airport","country":"CN","modes":["truck","air"]},"geometry":{"type":"Point","coordinates":[113.849165,34.526497]}},
      {"type":"Feature","properties":{"name":"Ezhou Huahu Airport","country":"CN","modes":["truck","air"]},"geometry":{"type":"Point","coordinates":[115.03926,30.341178]}},
      {"type":"Feature","properties":{"name":"Wuhan Tianhe International Airport","country":"CN","modes":["truck","air"]},"geometry":{"type":"Point","coordinates":[114.213723,30.774798]}},
      {"type":"Feature","properties":{"name":"Haikou Meilan International Airport","country":"CN","modes":["truck","air"]},"geometry":{"type":"Point","coordinates":[110.459,19.9349]}},
      {"type":"Feature","properties":{"name":"Sanya Phoenix International Airport","country":"CN","modes":["truck","air"]},"geometry":{"type":"Point","coordinates":[109.412003,18.3029]}},
      {"type":"Feature","properties":{"name":"Pyongyang Sunan International Airport","country":"KP","modes":["truck","air"]},"geometry":{"type":"Point","coordinates":[125.669998,39.224098]}},
      {"type":"Feature","properties":{"name":"Lanzhou Zhongchuan International Airport","country":"CN","modes":["truck","air"]},"geometry":{"type":"Point","coordinates":[103.620003,36.515202]}},
      {"type":"Feature","properties":{"name":"Xi'an Xianyang International Airport","country":"CN","modes":["truck","air"]},"geometry":{"type":"Point","coordinates":[108.751999,34.447102]}},
      {"type":"Feature","properties":{"name":"Ulaanbaatar Chinggis Khaan International Airport","country":"MN","modes":["truck","air"]},"geometry":{"type":"Point","coordinates":[106.819833,47.646916]}},
      {"type":"Feature","properties":{"name":"Kunming Changshui International Airport","country":"CN","modes":["truck","air"]},"geometry":{"type":"Point","coordinates":[102.936743,25.110313]}},
      {"type":"Feature","properties":{"name":"Xiamen Gaoqi International Airport","country":"CN","modes":["truck","air"]},"geometry":{"type":"Point","coordinates":[118.12799835205078,24.54400062561035]}},
      {"type":"Feature","properties":{"name":"Nanchang Changbei International Airport","country":"CN","modes":["truck","air"]},"geometry":{"type":"Point","coordinates":[115.90271,28.864815]}},
      {"type":"Feature","properties":{"name":"Fuzhou Changle International Airport","country":"CN","modes":["truck","air"]},"geometry":{"type":"Point","coordinates":[119.66318,25.934669]}},
      {"type":"Feature","properties":{"name":"Hangzhou Xiaoshan International Airport","country":"CN","modes":["truck","air"]},"geometry":{"type":"Point","coordinates":[120.428865,30.23609]}},
      {"type":"Feature","properties":{"name":"Jinan Yaoqiang International Airport","country":"CN","modes":["truck","air"]},"geometry":{"type":"Point","coordinates":[117.216003,36.857201]}},
      {"type":"Feature","properties":{"name":"Ningbo Lishe International Airport","country":"CN","modes":["truck","air"]},"geometry":{"type":"Point","coordinates":[121.46199798583984,29.82670021057129]}},
      {"type":"Feature","properties":{"name":"Nanjing Lukou International Airport","country":"CN","modes":["truck","air"]},"geometry":{"type":"Point","coordinates":[118.865949,31.735032]}},
      {"type":"Feature","properties":{"name":"Shanghai Pudong International Airport","country":"CN","modes":["truck","air"]},"geometry":{"type":"Point","coordinates":[121.805,31.1434]}},
      {"type":"Feature","properties":{"name":"Qingdao Jiaodong International Airport","country":"CN","modes":["truck","air"]},"geometry":{"type":"Point","coordinates":[120.088171,36.361953]}},
      {"type":"Feature","properties":{"name":"Shanghai Hongqiao International Airport","country":"CN","modes":["truck","air"]},"geometry":{"type":"Point","coordinates":[121.33426,31.198104]}},
      {"type":"Feature","properties":{"name":"Wenzhou Longwan International Airport","country":"CN","modes":["truck","air"]},"geometry":{"type":"Point","coordinates":[120.851997,27.912201]}},
      {"type":"Feature","properties":{"name":"Chongqing Jiangbei International Airport","country":"CN","modes":["truck","air"]},"geometry":{"type":"Point","coordinates":[106.651895,29.712254]}},
      {"type":"Feature","properties":{"name":"Guiyang Longdongbao International Airport","country":"CN","modes":["truck","air"]},"geometry":{"type":"Point","coordinates":[106.803331,26.541466]}},
      {"type":"Feature","properties":{"name":"Chengdu Tianfu International Airport","country":"CN","modes":["truck","air"]},"geometry":{"type":"Point","coordinates":[104.441284,30.31252]}},
      {"type":"Feature","properties":{"name":"Chengdu Shuangliu International Airport","country":"CN","modes":["truck","air"]},"geometry":{"type":"Point","coordinates":[103.945966,30.558257]}},
      {"type":"Feature","properties":{"name":"Ürümqi Diwopu International Airport","country":"CN","modes":["truck","air"]},"geometry":{"type":"Point","coordinates":[87.47419738769531,43.907100677490234]}},
      {"type":"Feature","properties":{"name":"Changchun Longjia International Airport","country":"CN","modes":["truck","air"]},"geometry":{"type":"Point","coordinates":[125.684998,43.996201]}},
      {"type":"Feature","properties":{"name":"Harbin Taiping International Airport","country":"CN","modes":["truck","air"]},"geometry":{"type":"Point","coordinates":[126.25,45.623402]}},
      {"type":"Feature","properties":{"name":"Dalian Zhoushuizi International Airport","country":"CN","modes":["truck","air"]},"geometry":{"type":"Point","coordinates":[121.538477,38.965719]}},
      {"type":"Feature","properties":{"name":"Shenyang Taoxian International Airport","country":"CN","modes":["truck","air"]},"geometry":{"type":"Point","coordinates":[123.483002,41.639801]}}
    ]
  }