{
  "type": "FeatureCollection",
  "features": [
    {
      "type": "Feature",
      "properties": {
        "name": "Helsinki-Vantaa Airport",
        "country": "Finland"
      },
      "geometry": {
        "type": "Point",
        "coordinates": [24.9633, 60.3172]
      }
    },
    {
      "type": "Feature",
      "properties": {
        "name": "London Heathrow Airport",
        "country": "United Kingdom"
      },
      "geometry": {
        "type": "Point",
        "coordinates": [-0.4543, 51.4700]
      }
    },
    {
      "type": "Feature",
      "properties": {
        "name": "Paris Charles de Gaulle Airport",
        "country": "France"
      },
      "geometry": {
        "type": "Point",
        "coordinates": [2.55, 49.0097]
      }
    },
    {
      "type": "Feature",
      "properties": {
        "name": "Amsterdam Schiphol Airport",
        "country": "Netherlands"
      },
      "geometry": {
        "type": "Point",
        "coordinates": [4.7639, 52.3105]
      }
    },
    {
      "type": "Feature",
      "properties": {
        "name": "Frankfurt am Main Airport",
        "country": "Germany"
      },
      "geometry": {
        "type": "Point",
        "coordinates": [8.5706, 50.0379]
      }
    },
    {
      "type": "Feature",
      "properties": {
        "name": "Istanbul Airport",
        "country": "Turkey"
      },
      "geometry": {
        "type": "Point",
        "coordinates": [28.8153, 41.2753]
      }
    },
    {
      "type": "Feature",
      "properties": {
        "name": "Madrid-Barajas Adolfo Suárez Airport",
        "country": "Spain"
      },
      "geometry": {
        "type": "Point",
        "coordinates": [-3.5695, 40.4983]
      }
    },
    {
      "type": "Feature",
      "properties": {
        "name": "Rome–Fiumicino International Airport",
        "country": "Italy"
      },
      "geometry": {
        "type": "Point",
        "coordinates": [12.2508, 41.8003]
      }
    },
    {
      "type": "Feature",
      "properties": {
        "name": "Copenhagen Airport",
        "country": "Denmark"
      },
      "geometry": {
        "type": "Point",
        "coordinates": [12.6508, 55.6181]
      }
    },
    {
      "type": "Feature",
      "properties": {
        "name": "Vienna International Airport",
        "country": "Austria"
      },
      "geometry": {
        "type": "Point",
        "coordinates": [16.5636, 48.1103]
      }
    },
    {
      "type": "Feature",
      "properties": {
        "name": "Zurich Airport",
        "country": "Switzerland"
      },
      "geometry": {
        "type": "Point",
        "coordinates": [8.5492, 47.4581]
      }
    },
    {
      "type": "Feature",
      "properties": {
        "name": "Stockholm Arlanda Airport",
        "country": "Sweden"
      },
      "geometry": {
        "type": "Point",
        "coordinates": [17.9306, 59.6498]
      }
    },
    {
      "type": "Feature",
      "properties": {
        "name": "Warsaw Chopin Airport",
        "country": "Poland"
      },
      "geometry": {
        "type": "Point",
        "coordinates": [20.9676, 52.1657]
      }
    },
    {
      "type": "Feature",
      "properties": {
        "name": "Athens International Airport",
        "country": "Greece"
      },
      "geometry": {
        "type": "Point",
        "coordinates": [23.9465, 37.9364]
      }
    },
    {
      "type": "Feature",
      "properties": {
        "name": "Moscow Sheremetyevo International Airport",
        "country": "Russia"
      },
      "geometry": {
        "type": "Point",
        "coordinates": [37.4166, 55.9726]
      }
    },
    {
      "type": "Feature",
      "properties": {
        "name": "Hartsfield-Jackson Atlanta International Airport",
        "country": "United States"
      },
      "geometry": {
        "type": "Point",
        "coordinates": [-84.4277, 33.6407]
      }
    },
    {
      "type": "Feature",
      "properties": {
        "name": "Dallas/Fort Worth International Airport",
        "country": "United States"
      },
      "geometry": {
        "type": "Point",
        "coordinates": [-97.0403, 32.8998]
      }
    },
    {
      "type": "Feature",
      "properties": {
        "name": "Los Angeles International Airport",
        "country": "United States"
      },
      "geometry": {
        "type": "Point",
        "coordinates": [-118.4085, 33.9416]
      }
    },
    {
      "type": "Feature",
      "properties": {
        "name": "O'Hare International Airport",
        "country": "United States"
      },
      "geometry": {
        "type": "Point",
        "coordinates": [-87.9048, 41.9742]
      }
    },
    {
      "type": "Feature",
      "properties": {
        "name": "John F. Kennedy International Airport",
        "country": "United States"
      },
      "geometry": {
        "type": "Point",
        "coordinates": [-73.7781, 40.6413]
      }
    },
    {
      "type": "Feature",
      "properties": {
        "name": "Miami International Airport",
        "country": "United States"
      },
      "geometry": {
        "type": "Point",
        "coordinates": [-80.2906, 25.7959]
      }
    },
    {
      "type": "Feature",
      "properties": {
        "name": "Seattle-Tacoma International Airport",
        "country": "United States"
      },
      "geometry": {
        "type": "Point",
        "coordinates": [-122.3088, 47.4502]
      }
    },
    {
      "type": "Feature",
      "properties": {
        "name": "San Francisco International Airport",
        "country": "United States"
      },
      "geometry": {
        "type": "Point",
        "coordinates": [-122.379, 37.6213]
      }
    },
    {
      "type": "Feature",
      "properties": {
        "name": "Mexico City International Airport",
        "country": "Mexico"
      },
      "geometry": {
        "type": "Point",
        "coordinates": [-99.0721, 19.4363]
      }
    },
    {
      "type": "Feature",
      "properties": {
        "name": "São Paulo/Guarulhos – Governador André Franco Montoro International Airport",
        "country": "Brazil"
      },
      "geometry": {
        "type": "Point",
        "coordinates": [-46.4695, -23.4356]
      }
    },
    {
      "type": "Feature",
      "properties": {
        "name": "El Dorado International Airport",
        "country": "Colombia"
      },
      "geometry": {
        "type": "Point",
        "coordinates": [-74.1469, 4.7016]
      }
    },
    {
      "type": "Feature",
      "properties": {
        "name": "Lima Jorge Chávez International Airport",
        "country": "Peru"
      },
      "geometry": {
        "type": "Point",
        "coordinates": [-77.1143, -12.0219]
      }
    },
    {
      "type": "Feature",
      "properties": {
        "name": "Santiago International Airport (Arturo Merino Benítez)",
        "country": "Chile"
      },
      "geometry": {
        "type": "Point",
        "coordinates": [-70.7858, -33.3930]
      }
    },
    {
      "type": "Feature",
      "properties": {
        "name": "Beijing Capital International Airport",
        "country": "China"
      },
      "geometry": {
        "type": "Point",
        "coordinates": [116.6012, 40.0799]
      }
    },
    {
      "type": "Feature",
      "properties": {
        "name": "Shanghai Pudong International Airport",
        "country": "China"
      },
      "geometry": {
        "type": "Point",
        "coordinates": [121.8052, 31.1434]
      }
    },
    {
      "type": "Feature",
      "properties": {
        "name": "Hong Kong International Airport",
        "country": "China"
      },
      "geometry": {
        "type": "Point",
        "coordinates": [113.9365, 22.3080]
      }
    },
    {
      "type": "Feature",
      "properties": {
        "name": "Tokyo Haneda Airport",
        "country": "Japan"
      },
      "geometry": {
        "type": "Point",
        "coordinates": [139.7797, 35.5494]
      }
    },
    {
      "type": "Feature",
      "properties": {
        "name": "Seoul Incheon International Airport",
        "country": "South Korea"
      },
      "geometry": {
        "type": "Point",
        "coordinates": [126.4505, 37.4602]
      }
    },
    {
      "type": "Feature",
      "properties": {
        "name": "Singapore Changi Airport",
        "country": "Singapore"
      },
      "geometry": {
        "type": "Point",
        "coordinates": [103.9894, 1.3644]
      }
    },
    {
      "type": "Feature",
      "properties": {
        "name": "Bangkok Suvarnabhumi Airport",
        "country": "Thailand"
      },
      "geometry": {
        "type": "Point",
        "coordinates": [100.7473, 13.6931]
      }
    },
    {
      "type": "Feature",
      "properties": {
        "name": "Dubai International Airport",
        "country": "United Arab Emirates"
      },
      "geometry": {
        "type": "Point",
        "coordinates": [55.3644, 25.2528]
      }
    },
    {
      "type": "Feature",
      "properties": {
        "name": "Doha Hamad International Airport",
        "country": "Qatar"
      },
      "geometry": {
        "type": "Point",
        "coordinates": [51.6081, 25.2609]
      }
    },
    {
      "type": "Feature",
      "properties": {
        "name": "Istanbul Airport",
        "country": "Turkey"
      },
      "geometry": {
        "type": "Point",
        "coordinates": [28.8153, 41.2753]
      }
    },
    {
      "type": "Feature",
      "properties": {
        "name": "Cairo International Airport",
        "country": "Egypt"
      },
      "geometry": {
        "type": "Point",
        "coordinates": [31.4056, 30.1219]
      }
    },
    {
      "type": "Feature",
      "properties": {
        "name": "Johannesburg OR Tambo International Airport",
        "country": "South Africa"
      },
      "geometry": {
        "type": "Point",
        "coordinates": [28.2460, -26.1337]
      }
    },
    {
      "type": "Feature",
      "properties": {
        "name": "Nairobi Jomo Kenyatta International Airport",
        "country": "Kenya"
      },
      "geometry": {
        "type": "Point",
        "coordinates": [36.9278, -1.3192]
      }
    },
    {
      "type": "Feature",
      "properties": {
        "name": "Lagos Murtala Muhammed International Airport",
        "country": "Nigeria"
      },
      "geometry": {
        "type": "Point",
        "coordinates": [3.3212, 6.5774]
      }
    },
    {
      "type": "Feature",
      "properties": {
        "name": "Sydney Kingsford Smith Airport",
        "country": "Australia"
      },
      "geometry": {
        "type": "Point",
        "coordinates": [151.1772, -33.9461]
      }
    },
    {
      "type": "Feature",
      "properties": {
        "name": "Melbourne Airport",
        "country": "Australia"
      },
      "geometry": {
        "type": "Point",
        "coordinates": [144.8433, -37.6733]
      }
    },
    {
      "type": "Feature",
      "properties": {
        "name": "Auckland Airport",
        "country": "New Zealand"
      },
      "geometry": {
        "type": "Point",
        "coordinates": [174.7860, -37.0081]
      }
    },
    {
      "type": "Feature",
      "properties": {
        "name": "Mumbai Chhatrapati Shivaji Maharaj International Airport",
        "country": "India"
      },
      "geometry": {
        "type": "Point",
        "coordinates": [72.8679, 19.0887]
      }
    },
    {
      "type": "Feature",
      "properties": {
        "name": "Delhi Indira Gandhi International Airport",
        "country": "India"
      },
      "geometry": {
        "type": "Point",
        "coordinates": [77.1031, 28.5562]
      }
    },
    {
      "type": "Feature",
      "properties": {
        "name": "Jakarta Soekarno-Hatta International Airport",
        "country": "Indonesia"
      },
      "geometry": {
        "type": "Point",
        "coordinates": [106.6558, -6.1256]
      }
    },
    {
      "type": "Feature",
      "properties": {
        "name": "Kuala Lumpur International Airport",
        "country": "Malaysia"
      },
      "geometry": {
        "type": "Point",
        "coordinates": [101.7097, 2.7456]
      }
    },
    {
      "type": "Feature",
      "properties": {
        "name": "Manila Ninoy Aquino International Airport",
        "country": "Philippines"
      },
      "geometry": {
        "type": "Point",
        "coordinates": [121.0197, 14.5086]
      }
    },
    {
      "type": "Feature",
      "properties": {
        "name": "Ho Chi Minh City Tan Son Nhat International Airport",
        "country": "Vietnam"
      },
      "geometry": {
        "type": "Point",
        "coordinates": [106.6520, 10.8188]
      }
    }
  ]
}
